__time,/velocity_joint_trajectory_controller/controller_state/error/positions[0],/velocity_joint_trajectory_controller/controller_state/error/positions[1],/velocity_joint_trajectory_controller/controller_state/error/positions[2],/velocity_joint_trajectory_controller/controller_state/error/positions[3],/velocity_joint_trajectory_controller/controller_state/error/time_from_start/nanosec,/velocity_joint_trajectory_controller/controller_state/error/time_from_start/sec,/velocity_joint_trajectory_controller/controller_state/error/velocities[0],/velocity_joint_trajectory_controller/controller_state/error/velocities[1],/velocity_joint_trajectory_controller/controller_state/error/velocities[2],/velocity_joint_trajectory_controller/controller_state/error/velocities[3],/velocity_joint_trajectory_controller/controller_state/feedback/positions[0],/velocity_joint_trajectory_controller/controller_state/feedback/positions[1],/velocity_joint_trajectory_controller/controller_state/feedback/positions[2],/velocity_joint_trajectory_controller/controller_state/feedback/positions[3],/velocity_joint_trajectory_controller/controller_state/feedback/time_from_start/nanosec,/velocity_joint_trajectory_controller/controller_state/feedback/time_from_start/sec,/velocity_joint_trajectory_controller/controller_state/feedback/velocities[0],/velocity_joint_trajectory_controller/controller_state/feedback/velocities[1],/velocity_joint_trajectory_controller/controller_state/feedback/velocities[2],/velocity_joint_trajectory_controller/controller_state/feedback/velocities[3],/velocity_joint_trajectory_controller/controller_state/header/stamp/nanosec,/velocity_joint_trajectory_controller/controller_state/header/stamp/sec,/velocity_joint_trajectory_controller/controller_state/multi_dof_error/time_from_start/nanosec,/velocity_joint_trajectory_controller/controller_state/multi_dof_error/time_from_start/sec,/velocity_joint_trajectory_controller/controller_state/multi_dof_feedback/time_from_start/nanosec,/velocity_joint_trajectory_controller/controller_state/multi_dof_feedback/time_from_start/sec,/velocity_joint_trajectory_controller/controller_state/multi_dof_output/time_from_start/nanosec,/velocity_joint_trajectory_controller/controller_state/multi_dof_output/time_from_start/sec,/velocity_joint_trajectory_controller/controller_state/multi_dof_reference/time_from_start/nanosec,/velocity_joint_trajectory_controller/controller_state/multi_dof_reference/time_from_start/sec,/velocity_joint_trajectory_controller/controller_state/output/time_from_start/nanosec,/velocity_joint_trajectory_controller/controller_state/output/time_from_start/sec,/velocity_joint_trajectory_controller/controller_state/output/velocities[0],/velocity_joint_trajectory_controller/controller_state/output/velocities[1],/velocity_joint_trajectory_controller/controller_state/output/velocities[2],/velocity_joint_trajectory_controller/controller_state/output/velocities[3],/velocity_joint_trajectory_controller/controller_state/reference/accelerations[0],/velocity_joint_trajectory_controller/controller_state/reference/accelerations[1],/velocity_joint_trajectory_controller/controller_state/reference/accelerations[2],/velocity_joint_trajectory_controller/controller_state/reference/accelerations[3],/velocity_joint_trajectory_controller/controller_state/reference/positions[0],/velocity_joint_trajectory_controller/controller_state/reference/positions[1],/velocity_joint_trajectory_controller/controller_state/reference/positions[2],/velocity_joint_trajectory_controller/controller_state/reference/positions[3],/velocity_joint_trajectory_controller/controller_state/reference/time_from_start/nanosec,/velocity_joint_trajectory_controller/controller_state/reference/time_from_start/sec,/velocity_joint_trajectory_controller/controller_state/reference/velocities[0],/velocity_joint_trajectory_controller/controller_state/reference/velocities[1],/velocity_joint_trajectory_controller/controller_state/reference/velocities[2],/velocity_joint_trajectory_controller/controller_state/reference/velocities[3],/velocity_joint_trajectory_controller/controller_state/speed_scaling_factor
1760481385.014829,0.012686421,0.000000116,0.000009547,-0.000034944,0.000000000,0.000000000,-0.006067025,0.000001753,-0.000003900,0.000023148,-1.583386421,0.199999884,-0.000009547,0.000034944,0.000000000,0.000000000,0.006067025,-0.000001753,0.000003900,-0.000023148,14597495.000000000,1760481385.000000000,0.000000000,0.000000000,0.000000000,0.000000000,0.000000000,0.000000000,0.000000000,0.000000000,0.000000000,0.000000000,0.006343211,0.000000012,0.000000955,-0.000003494,0.000000000,0.000000000,0.000000000,0.000000000,-1.570700000,0.200000000,0.000000000,0.000000000,0.000000000,0.000000000,0.000000000,0.000000000,0.000000000,0.000000000,0.000000000
1760481385.034678,0.012560417,0.000000116,0.000009547,-0.000034944,0.000000000,0.000000000,-0.006083269,0.000001734,0.000044404,0.000069605,-1.583260417,0.199999884,-0.000009547,0.000034944,0.000000000,0.000000000,0.006083269,-0.000001734,-0.000044404,-0.000069605,34569754.000000000,1760481385.000000000,0.000000000,0.000000000,0.000000000,0.000000000,0.000000000,0.000000000,0.000000000,0.000000000,0.000000000,0.000000000,0.006280208,0.000000012,0.000000955,-0.000003494,0.000000000,0.000000000,0.000000000,0.000000000,-1.570700000,0.200000000,0.000000000,0.000000000,0.000000000,0.000000000,0.000000000,0.000000000,0.000000000,0.000000000,0.000000000
1760481385.054676,0.012450864,0.000000116,0.000009547,-0.000018965,0.000000000,0.000000000,-0.005923564,0.000001696,0.000053326,0.000017917,-1.583150864,0.199999884,-0.000009547,0.000018965,0.000000000,0.000000000,0.005923564,-0.000001696,-0.000053326,-0.000017917,54526902.000000000,1760481385.000000000,0.000000000,0.000000000,0.000000000,0.000000000,0.000000000,0.000000000,0.000000000,0.000000000,0.000000000,0.000000000,0.006225432,0.000000012,0.000000955,-0.000001896,0.000000000,0.000000000,0.000000000,0.000000000,-1.570700000,0.200000000,0.000000000,0.000000000,0.000000000,0.000000000,0.000000000,0.000000000,0.000000000,0.000000000,0.000000000
1760481385.074724,0.012352278,-0.000000003,0.000009547,-0.000034944,0.000000000,0.000000000,-0.005594238,0.000000775,0.000007792,0.000005611,-1.583052278,0.200000003,-0.000009547,0.000034944,0.000000000,0.000000000,0.005594238,-0.000000775,-0.000007792,-0.000005611,74594976.000000000,1760481385.000000000,0.000000000,0.000000000,0.000000000,0.000000000,0.000000000,0.000000000,0.000000000,0.000000000,0.000000000,0.000000000,0.006176139,-0.000000000,0.000000955,-0.000003494,0.000000000,0.000000000,0.000000000,0.000000000,-1.570700000,0.200000000,0.000000000,0.000000000,0.000000000,0.000000000,0.000000000,0.000000000,0.000000000,0.000000000,0.000000000
1760481385.095414,0.012259175,-0.000000003,0.000009547,-0.000002986,0.000000000,0.000000000,-0.005453098,-0.000000899,-0.000006053,0.000055145,-1.582959175,0.200000003,-0.000009547,0.000002986,0.000000000,0.000000000,0.005453098,0.000000899,0.000006053,-0.000055145,95114773.000000000,1760481385.000000000,0.000000000,0.000000000,0.000000000,0.000000000,0.000000000,0.000000000,0.000000000,0.000000000,0.000000000,0.000000000,0.006129588,-0.000000000,0.000000955,-0.000000299,0.000000000,0.000000000,0.000000000,0.000000000,-1.570700000,0.200000000,0.000000000,0.000000000,0.000000000,0.000000000,0.000000000,0.000000000,0.000000000,0.000000000,0.000000000
1760481385.115019,0.012154986,-0.000000003,0.000001558,-0.000018965,0.000000000,0.000000000,-0.005349511,-0.000001293,0.000040404,0.000029609,-1.582854986,0.200000003,-0.000001558,0.000018965,0.000000000,0.000000000,0.005349511,0.000001293,-0.000040404,-0.000029609,114744921.000000000,1760481385.000000000,0.000000000,0.000000000,0.000000000,0.000000000,0.000000000,0.000000000,0.000000000,0.000000000,0.000000000,0.000000000,0.006077493,-0.000000000,0.000000156,-0.000001896,0.000000000,0.000000000,0.000000000,0.000000000,-1.570700000,0.200000000,0.000000000,0.000000000,0.000000000,0.000000000,0.000000000,0.000000000,0.000000000,0.000000000,0.000000000
1760481385.135828,0.012083818,0.000000235,0.000009547,-0.000002986,0.000000000,0.000000000,-0.004845711,-0.000000523,-0.000007592,0.000044069,-1.582783818,0.199999765,-0.000009547,0.000002986,0.000000000,0.000000000,0.004845711,0.000000523,0.000007592,-0.000044069,135093310.000000000,1760481385.000000000,0.000000000,0.000000000,0.000000000,0.000000000,0.000000000,0.000000000,0.000000000,0.000000000,0.000000000,0.000000000,0.006041909,0.000000024,0.000000955,-0.000000299,0.000000000,0.000000000,0.000000000,0.000000000,-1.570700000,0.200000000,0.000000000,0.000000000,0.000000000,0.000000000,0.000000000,0.000000000,0.000000000,0.000000000,0.000000000
1760481385.155391,0.011990716,-0.000000003,0.000009547,-0.000018965,0.000000000,0.000000000,-0.004560900,-0.000000316,0.000037328,0.000011149,-1.582690716,0.200000003,-0.000009547,0.000018965,0.000000000,0.000000000,0.004560900,0.000000316,-0.000037328,-0.000011149,154963087.000000000,1760481385.000000000,0.000000000,0.000000000,0.000000000,0.000000000,0.000000000,0.000000000,0.000000000,0.000000000,0.000000000,0.000000000,0.005995358,-0.000000000,0.000000955,-0.000001896,0.000000000,0.000000000,0.000000000,0.000000000,-1.570700000,0.200000000,0.000000000,0.000000000,0.000000000,0.000000000,0.000000000,0.000000000,0.000000000,0.000000000,0.000000000
1760481385.176102,0.011864712,-0.000000003,0.000009547,-0.000018965,0.000000000,0.000000000,-0.005116809,-0.000000146,0.000005023,0.000018225,-1.582564712,0.200000003,-0.000009547,0.000018965,0.000000000,0.000000000,0.005116809,0.000000146,-0.000005023,-0.000018225,174893347.000000000,1760481385.000000000,0.000000000,0.000000000,0.000000000,0.000000000,0.000000000,0.000000000,0.000000000,0.000000000,0.000000000,0.000000000,0.005932356,-0.000000000,0.000000955,-0.000001896,0.000000000,0.000000000,0.000000000,0.000000000,-1.570700000,0.200000000,0.000000000,0.000000000,0.000000000,0.000000000,0.000000000,0.000000000,0.000000000,0.000000000,0.000000000
1760481385.195813,0.011700322,-0.000000003,0.000009547,-0.000034944,0.000000000,0.000000000,-0.005805206,0.000000079,-0.000026052,-0.000025156,-1.582400322,0.200000003,-0.000009547,0.000034944,0.000000000,0.000000000,0.005805206,-0.000000079,0.000026052,0.000025156,195135402.000000000,1760481385.000000000,0.000000000,0.000000000,0.000000000,0.000000000,0.000000000,0.000000000,0.000000000,0.000000000,0.000000000,0.000000000,0.005850161,-0.000000000,0.000000955,-0.000003494,0.000000000,0.000000000,0.000000000,0.000000000,-1.570700000,0.200000000,0.000000000,0.000000000,0.000000000,0.000000000,0.000000000,0.000000000,0.000000000,0.000000000,0.000000000
1760481385.215270,0.011568834,0.000000235,0.000017537,-0.000018965,0.000000000,0.000000000,-0.006244869,0.000000587,-0.000035589,-0.000093458,-1.582268834,0.199999765,-0.000017537,0.000018965,0.000000000,0.000000000,0.006244869,-0.000000587,0.000035589,0.000093458,214959902.000000000,1760481385.000000000,0.000000000,0.000000000,0.000000000,0.000000000,0.000000000,0.000000000,0.000000000,0.000000000,0.000000000,0.000000000,0.005784417,0.000000024,0.000001754,-0.000001896,0.000000000,0.000000000,0.000000000,0.000000000,-1.570700000,0.200000000,0.000000000,0.000000000,0.000000000,0.000000000,0.000000000,0.000000000,0.000000000,0.000000000,0.000000000
1760481385.234681,0.011431863,0.000000116,0.000009547,-0.000018965,0.000000000,0.000000000,-0.006321662,0.000000718,-0.000004515,-0.000041462,-1.582131863,0.199999884,-0.000009547,0.000018965,0.000000000,0.000000000,0.006321662,-0.000000718,0.000004515,0.000041462,234570013.000000000,1760481385.000000000,0.000000000,0.000000000,0.000000000,0.000000000,0.000000000,0.000000000,0.000000000,0.000000000,0.000000000,0.000000000,0.005715931,0.000000012,0.000000955,-0.000001896,0.000000000,0.000000000,0.000000000,0.000000000,-1.570700000,0.200000000,0.000000000,0.000000000,0.000000000,0.000000000,0.000000000,0.000000000,0.000000000,0.000000000,0.000000000
1760481385.254704,0.011300375,0.000000116,0.000001558,-0.000034944,0.000000000,0.000000000,-0.006482209,0.000000869,-0.000043589,0.000072374,-1.582000375,0.199999884,-0.000001558,0.000034944,0.000000000,0.000000000,0.006482209,-0.000000869,0.000043589,-0.000072374,254590365.000000000,1760481385.000000000,0.000000000,0.000000000,0.000000000,0.000000000,0.000000000,0.000000000,0.000000000,0.000000000,0.000000000,0.000000000,0.005650187,0.000000012,0.000000156,-0.000003494,0.000000000,0.000000000,0.000000000,0.000000000,-1.570700000,0.200000000,0.000000000,0.000000000,0.000000000,0.000000000,0.000000000,0.000000000,0.000000000,0.000000000,0.000000000
1760481385.274621,0.011163403,-0.000000003,0.000009547,-0.000018965,0.000000000,0.000000000,-0.006606260,-0.000000278,-0.000026975,-0.000021464,-1.581863403,0.200000003,-0.000009547,0.000018965,0.000000000,0.000000000,0.006606260,0.000000278,0.000026975,0.000021464,274518458.000000000,1760481385.000000000,0.000000000,0.000000000,0.000000000,0.000000000,0.000000000,0.000000000,0.000000000,0.000000000,0.000000000,0.000000000,0.005581702,-0.000000000,0.000000955,-0.000001896,0.000000000,0.000000000,0.000000000,0.000000000,-1.570700000,0.200000000,0.000000000,0.000000000,0.000000000,0.000000000,0.000000000,0.000000000,0.000000000,0.000000000,0.000000000
1760481385.294673,0.011097719,-0.000000003,0.000009547,-0.000034944,0.000000000,0.000000000,-0.005832839,-0.000001613,-0.000021437,0.000024378,-1.581797719,0.200000003,-0.000009547,0.000034944,0.000000000,0.000000000,0.005832839,0.000001613,0.000021437,-0.000024378,294559513.000000000,1760481385.000000000,0.000000000,0.000000000,0.000000000,0.000000000,0.000000000,0.000000000,0.000000000,0.000000000,0.000000000,0.000000000,0.005548860,-0.000000000,0.000000955,-0.000003494,0.000000000,0.000000000,0.000000000,0.000000000,-1.570700000,0.200000000,0.000000000,0.000000000,0.000000000,0.000000000,0.000000000,0.000000000,0.000000000,0.000000000,0.000000000
1760481385.314603,0.010966231,-0.000000003,0.000009547,-0.000034944,0.000000000,0.000000000,-0.005750350,-0.000001764,0.000038251,-0.000087612,-1.581666231,0.200000003,-0.000009547,0.000034944,0.000000000,0.000000000,0.005750350,0.000001764,-0.000038251,0.000087612,314498495.000000000,1760481385.000000000,0.000000000,0.000000000,0.000000000,0.000000000,0.000000000,0.000000000,0.000000000,0.000000000,0.000000000,0.000000000,0.005483116,-0.000000000,0.000000955,-0.000003494,0.000000000,0.000000000,0.000000000,0.000000000,-1.570700000,0.200000000,0.000000000,0.000000000,0.000000000,0.000000000,0.000000000,0.000000000,0.000000000,0.000000000,0.000000000
1760481385.334994,0.010829260,0.000000116,0.000009547,-0.000018965,0.000000000,0.000000000,-0.006178411,-0.000000241,0.000001023,0.000066529,-1.581529260,0.199999884,-0.000009547,0.000018965,0.000000000,0.000000000,0.006178411,0.000000241,-0.000001023,-0.000066529,334621217.000000000,1760481385.000000000,0.000000000,0.000000000,0.000000000,0.000000000,0.000000000,0.000000000,0.000000000,0.000000000,0.000000000,0.000000000,0.005414630,0.000000012,0.000000955,-0.000001896,0.000000000,0.000000000,0.000000000,0.000000000,-1.570700000,0.200000000,0.000000000,0.000000000,0.000000000,0.000000000,0.000000000,0.000000000,0.000000000,0.000000000,0.000000000
1760481385.355809,0.010692288,0.000000116,0.000009547,-0.000018965,0.000000000,0.000000000,-0.006287273,0.000000850,-0.000044819,0.000010841,-1.581392288,0.199999884,-0.000009547,0.000018965,0.000000000,0.000000000,0.006287273,-0.000000850,0.000044819,-0.000010841,354820124.000000000,1760481385.000000000,0.000000000,0.000000000,0.000000000,0.000000000,0.000000000,0.000000000,0.000000000,0.000000000,0.000000000,0.000000000,0.005346144,0.000000012,0.000000955,-0.000001896,0.000000000,0.000000000,0.000000000,0.000000000,-1.570700000,0.200000000,0.000000000,0.000000000,0.000000000,0.000000000,0.000000000,0.000000000,0.000000000,0.000000000,0.000000000
1760481385.375320,0.010599186,0.000000116,0.000009547,-0.000002986,0.000000000,0.000000000,-0.005987905,0.000000718,-0.000077740,-0.000016234,-1.581299186,0.199999884,-0.000009547,0.000002986,0.000000000,0.000000000,0.005987905,-0.000000718,0.000077740,0.000016234,374739902.000000000,1760481385.000000000,0.000000000,0.000000000,0.000000000,0.000000000,0.000000000,0.000000000,0.000000000,0.000000000,0.000000000,0.000000000,0.005299593,0.000000012,0.000000955,-0.000000299,0.000000000,0.000000000,0.000000000,0.000000000,-1.570700000,0.200000000,0.000000000,0.000000000,0.000000000,0.000000000,0.000000000,0.000000000,0.000000000,0.000000000,0.000000000
1760481385.395720,0.010484030,-0.000000003,0.000009547,-0.000018965,0.000000000,0.000000000,-0.005830100,0.000001076,-0.000034974,-0.000009157,-1.581184030,0.200000003,-0.000009547,0.000018965,0.000000000,0.000000000,0.005830100,-0.000001076,0.000034974,0.000009157,395501106.000000000,1760481385.000000000,0.000000000,0.000000000,0.000000000,0.000000000,0.000000000,0.000000000,0.000000000,0.000000000,0.000000000,0.000000000,0.005242015,-0.000000000,0.000000955,-0.000001896,0.000000000,0.000000000,0.000000000,0.000000000,-1.570700000,0.200000000,0.000000000,0.000000000,0.000000000,0.000000000,0.000000000,0.000000000,0.000000000,0.000000000,0.000000000
1760481385.414890,0.010379960,0.000000116,0.000009547,-0.000034944,0.000000000,0.000000000,-0.005756681,0.000000869,-0.000043281,0.000089604,-1.581079960,0.199999884,-0.000009547,0.000034944,0.000000000,0.000000000,0.005756681,-0.000000869,0.000043281,-0.000089604,414789346.000000000,1760481385.000000000,0.000000000,0.000000000,0.000000000,0.000000000,0.000000000,0.000000000,0.000000000,0.000000000,0.000000000,0.000000000,0.005189980,0.000000012,0.000000955,-0.000003494,0.000000000,0.000000000,0.000000000,0.000000000,-1.570700000,0.200000000,0.000000000,0.000000000,0.000000000,0.000000000,0.000000000,0.000000000,0.000000000,0.000000000,0.000000000
1760481385.434862,0.010259439,0.000000116,0.000009547,-0.000018965,0.000000000,0.000000000,-0.005778412,0.000000418,-0.000051588,0.000041915,-1.580959439,0.199999884,-0.000009547,0.000018965,0.000000000,0.000000000,0.005778412,-0.000000418,0.000051588,-0.000041915,434763883.000000000,1760481385.000000000,0.000000000,0.000000000,0.000000000,0.000000000,0.000000000,0.000000000,0.000000000,0.000000000,0.000000000,0.000000000,0.005129720,0.000000012,0.000000955,-0.000001896,0.000000000,0.000000000,0.000000000,0.000000000,-1.570700000,0.200000000,0.000000000,0.000000000,0.000000000,0.000000000,0.000000000,0.000000000,0.000000000,0.000000000,0.000000000
1760481385.454768,0.010182788,-0.000000003,0.000009547,-0.000034944,0.000000000,0.000000000,-0.005316806,-0.000000109,-0.000039281,0.000028378,-1.580882788,0.200000003,-0.000009547,0.000034944,0.000000000,0.000000000,0.005316806,0.000000109,0.000039281,-0.000028378,454665439.000000000,1760481385.000000000,0.000000000,0.000000000,0.000000000,0.000000000,0.000000000,0.000000000,0.000000000,0.000000000,0.000000000,0.000000000,0.005091394,-0.000000000,0.000000955,-0.000003494,0.000000000,0.000000000,0.000000000,0.000000000,-1.570700000,0.200000000,0.000000000,0.000000000,0.000000000,0.000000000,0.000000000,0.000000000,0.000000000,0.000000000,0.000000000
1760481385.474812,0.010100533,-0.000000003,0.000009547,-0.000018965,0.000000000,0.000000000,-0.004887480,-0.000001237,-0.000003284,0.000007457,-1.580800533,0.200000003,-0.000009547,0.000018965,0.000000000,0.000000000,0.004887480,0.000001237,0.000003284,-0.000007457,474713161.000000000,1760481385.000000000,0.000000000,0.000000000,0.000000000,0.000000000,0.000000000,0.000000000,0.000000000,0.000000000,0.000000000,0.000000000,0.005050267,-0.000000000,0.000000955,-0.000001896,0.000000000,0.000000000,0.000000000,0.000000000,-1.570700000,0.200000000,0.000000000,0.000000000,0.000000000,0.000000000,0.000000000,0.000000000,0.000000000,0.000000000,0.000000000
1760481385.494878,0.009958197,-0.000000003,0.000009547,-0.000018965,0.000000000,0.000000000,-0.005381786,-0.000001181,-0.000010361,0.000014841,-1.580658197,0.200000003,-0.000009547,0.000018965,0.000000000,0.000000000,0.005381786,0.000001181,0.000010361,-0.000014841,494771291.000000000,1760481385.000000000,0.000000000,0.000000000,0.000000000,0.000000000,0.000000000,0.000000000,0.000000000,0.000000000,0.000000000,0.000000000,0.004979099,-0.000000000,0.000000955,-0.000001896,0.000000000,0.000000000,0.000000000,0.000000000,-1.570700000,0.200000000,0.000000000,0.000000000,0.000000000,0.000000000,0.000000000,0.000000000,0.000000000,0.000000000,0.000000000
1760481385.514585,0.009826710,0.000000116,0.000017537,-0.000034944,0.000000000,0.000000000,-0.005852673,-0.000001143,-0.000025744,-0.000045769,-1.580526710,0.199999884,-0.000017537,0.000034944,0.000000000,0.000000000,0.005852673,0.000001143,0.000025744,0.000045769,514490606.000000000,1760481385.000000000,0.000000000,0.000000000,0.000000000,0.000000000,0.000000000,0.000000000,0.000000000,0.000000000,0.000000000,0.000000000,0.004913355,0.000000012,0.000001754,-0.000003494,0.000000000,0.000000000,0.000000000,0.000000000,-1.570700000,0.200000000,0.000000000,0.000000000,0.000000000,0.000000000,0.000000000,0.000000000,0.000000000,0.000000000,0.000000000
1760481385.534645,0.009711673,-0.000000003,0.000009547,-0.000018965,0.000000000,0.000000000,-0.005842755,-0.000000071,-0.000023898,-0.000008234,-1.580411673,0.200000003,-0.000009547,0.000018965,0.000000000,0.000000000,0.005842755,0.000000071,0.000023898,0.000008234,534528606.000000000,1760481385.000000000,0.000000000,0.000000000,0.000000000,0.000000000,0.000000000,0.000000000,0.000000000,0.000000000,0.000000000,0.000000000,0.004855836,-0.000000000,0.000000955,-0.000001896,0.000000000,0.000000000,0.000000000,0.000000000,-1.570700000,0.200000000,0.000000000,0.000000000,0.000000000,0.000000000,0.000000000,0.000000000,0.000000000,0.000000000,0.000000000
1760481385.554866,0.009602000,0.000000116,0.000017537,-0.000002986,0.000000000,0.000000000,-0.005662796,0.000000455,-0.000041435,0.000025301,-1.580302000,0.199999884,-0.000017537,0.000002986,0.000000000,0.000000000,0.005662796,-0.000000455,0.000041435,-0.000025301,554751180.000000000,1760481385.000000000,0.000000000,0.000000000,0.000000000,0.000000000,0.000000000,0.000000000,0.000000000,0.000000000,0.000000000,0.000000000,0.004801000,0.000000012,0.000001754,-0.000000299,0.000000000,0.000000000,0.000000000,0.000000000,-1.570700000,0.200000000,0.000000000,0.000000000,0.000000000,0.000000000,0.000000000,0.000000000,0.000000000,0.000000000,0.000000000
1760481385.574844,0.009497930,-0.000000003,0.000009547,-0.000018965,0.000000000,0.000000000,-0.005649715,0.000000493,-0.000046050,0.000044069,-1.580197930,0.200000003,-0.000009547,0.000018965,0.000000000,0.000000000,0.005649715,-0.000000493,0.000046050,-0.000044069,574704531.000000000,1760481385.000000000,0.000000000,0.000000000,0.000000000,0.000000000,0.000000000,0.000000000,0.000000000,0.000000000,0.000000000,0.000000000,0.004748965,-0.000000000,0.000000955,-0.000001896,0.000000000,0.000000000,0.000000000,0.000000000,-1.570700000,0.200000000,0.000000000,0.000000000,0.000000000,0.000000000,0.000000000,0.000000000,0.000000000,0.000000000,0.000000000
1760481385.595705,0.009382893,-0.000000003,0.000009547,-0.000018965,0.000000000,0.000000000,-0.005614061,0.000000794,-0.000029744,0.000019763,-1.580082893,0.200000003,-0.000009547,0.000018965,0.000000000,0.000000000,0.005614061,-0.000000794,0.000029744,-0.000019763,595571494.000000000,1760481385.000000000,0.000000000,0.000000000,0.000000000,0.000000000,0.000000000,0.000000000,0.000000000,0.000000000,0.000000000,0.000000000,0.004691447,-0.000000000,0.000000955,-0.000001896,0.000000000,0.000000000,0.000000000,0.000000000,-1.570700000,0.200000000,0.000000000,0.000000000,0.000000000,0.000000000,0.000000000,0.000000000,0.000000000,0.000000000,0.000000000
1760481385.615039,0.009289791,0.000000116,0.000009547,-0.000018965,0.000000000,0.000000000,-0.005396338,0.000000643,-0.000025436,0.000004072,-1.579989791,0.199999884,-0.000009547,0.000018965,0.000000000,0.000000000,0.005396338,-0.000000643,0.000025436,-0.000004072,614926883.000000000,1760481385.000000000,0.000000000,0.000000000,0.000000000,0.000000000,0.000000000,0.000000000,0.000000000,0.000000000,0.000000000,0.000000000,0.004644895,0.000000012,0.000000955,-0.000001896,0.000000000,0.000000000,0.000000000,0.000000000,-1.570700000,0.200000000,0.000000000,0.000000000,0.000000000,0.000000000,0.000000000,0.000000000,0.000000000,0.000000000,0.000000000
1760481385.636269,0.009234955,-0.000000003,0.000017537,-0.000018965,0.000000000,0.000000000,-0.004762581,0.000000098,-0.000020206,0.000023763,-1.579934955,0.200000003,-0.000017537,0.000018965,0.000000000,0.000000000,0.004762581,-0.000000098,0.000020206,-0.000023763,635274568.000000000,1760481385.000000000,0.000000000,0.000000000,0.000000000,0.000000000,0.000000000,0.000000000,0.000000000,0.000000000,0.000000000,0.000000000,0.004617477,-0.000000000,0.000001754,-0.000001896,0.000000000,0.000000000,0.000000000,0.000000000,-1.570700000,0.200000000,0.000000000,0.000000000,0.000000000,0.000000000,0.000000000,0.000000000,0.000000000,0.000000000,0.000000000
1760481385.655083,0.009174754,-0.000000003,0.000009547,-0.000018965,0.000000000,0.000000000,-0.004199076,-0.000001030,0.000005330,0.000017610,-1.579874754,0.200000003,-0.000009547,0.000018965,0.000000000,0.000000000,0.004199076,0.000001030,-0.000005330,-0.000017610,654975754.000000000,1760481385.000000000,0.000000000,0.000000000,0.000000000,0.000000000,0.000000000,0.000000000,0.000000000,0.000000000,0.000000000,0.000000000,0.004587377,-0.000000000,0.000000955,-0.000001896,0.000000000,0.000000000,0.000000000,0.000000000,-1.570700000,0.200000000,0.000000000,0.000000000,0.000000000,0.000000000,0.000000000,0.000000000,0.000000000,0.000000000,0.000000000
1760481385.675650,0.009070684,-0.000000003,0.000001558,-0.000034944,0.000000000,0.000000000,-0.004194013,-0.000002046,0.000026559,-0.000025156,-1.579770684,0.200000003,-0.000001558,0.000034944,0.000000000,0.000000000,0.004194013,0.000002046,-0.000026559,0.000025156,675033550.000000000,1760481385.000000000,0.000000000,0.000000000,0.000000000,0.000000000,0.000000000,0.000000000,0.000000000,0.000000000,0.000000000,0.000000000,0.004535342,-0.000000000,0.000000156,-0.000003494,0.000000000,0.000000000,0.000000000,0.000000000,-1.570700000,0.200000000,0.000000000,0.000000000,0.000000000,0.000000000,0.000000000,0.000000000,0.000000000,0.000000000,0.000000000
1760481385.694925,0.008993913,0.000000116,0.000017537,-0.000018965,0.000000000,0.000000000,-0.004260258,-0.000000786,-0.000008207,0.000058529,-1.579693913,0.199999884,-0.000017537,0.000018965,0.000000000,0.000000000,0.004260258,0.000000786,0.000008207,-0.000058529,694601698.000000000,1760481385.000000000,0.000000000,0.000000000,0.000000000,0.000000000,0.000000000,0.000000000,0.000000000,0.000000000,0.000000000,0.000000000,0.004496957,0.000000012,0.000001754,-0.000001896,0.000000000,0.000000000,0.000000000,0.000000000,-1.570700000,0.200000000,0.000000000,0.000000000,0.000000000,0.000000000,0.000000000,0.000000000,0.000000000,0.000000000,0.000000000
1760481385.714671,0.008906295,0.000000116,0.000017537,-0.000018965,0.000000000,0.000000000,-0.004292958,0.000000361,0.000020406,0.000059760,-1.579606295,0.199999884,-0.000017537,0.000018965,0.000000000,0.000000000,0.004292958,-0.000000361,-0.000020406,-0.000059760,714562198.000000000,1760481385.000000000,0.000000000,0.000000000,0.000000000,0.000000000,0.000000000,0.000000000,0.000000000,0.000000000,0.000000000,0.000000000,0.004453147,0.000000012,0.000001754,-0.000001896,0.000000000,0.000000000,0.000000000,0.000000000,-1.570700000,0.200000000,0.000000000,0.000000000,0.000000000,0.000000000,0.000000000,0.000000000,0.000000000,0.000000000,0.000000000
1760481385.734783,0.008835007,-0.000000003,0.000009547,-0.000034944,0.000000000,0.000000000,-0.004102874,0.000000944,0.000020098,-0.000043616,-1.579535007,0.200000003,-0.000009547,0.000034944,0.000000000,0.000000000,0.004102874,-0.000000944,-0.000020098,0.000043616,734686717.000000000,1760481385.000000000,0.000000000,0.000000000,0.000000000,0.000000000,0.000000000,0.000000000,0.000000000,0.000000000,0.000000000,0.000000000,0.004417504,-0.000000000,0.000000955,-0.000003494,0.000000000,0.000000000,0.000000000,0.000000000,-1.570700000,0.200000000,0.000000000,0.000000000,0.000000000,0.000000000,0.000000000,0.000000000,0.000000000,0.000000000,0.000000000
1760481385.754588,0.008774807,0.000000116,0.000017537,-0.000018965,0.000000000,0.000000000,-0.003900974,0.000002561,0.000040712,-0.000000235,-1.579474807,0.199999884,-0.000017537,0.000018965,0.000000000,0.000000000,0.003900974,-0.000002561,-0.000040712,0.000000235,754490976.000000000,1760481385.000000000,0.000000000,0.000000000,0.000000000,0.000000000,0.000000000,0.000000000,0.000000000,0.000000000,0.000000000,0.000000000,0.004387403,0.000000012,0.000001754,-0.000001896,0.000000000,0.000000000,0.000000000,0.000000000,-1.570700000,0.200000000,0.000000000,0.000000000,0.000000000,0.000000000,0.000000000,0.000000000,0.000000000,0.000000000,0.000000000
1760481385.774868,0.008703520,0.000000235,0.000009547,-0.000018965,0.000000000,0.000000000,-0.003734307,0.000002373,0.000031174,-0.000047308,-1.579403520,0.199999765,-0.000009547,0.000018965,0.000000000,0.000000000,0.003734307,-0.000002373,-0.000031174,0.000047308,774674180.000000000,1760481385.000000000,0.000000000,0.000000000,0.000000000,0.000000000,0.000000000,0.000000000,0.000000000,0.000000000,0.000000000,0.000000000,0.004351760,0.000000024,0.000000955,-0.000001896,0.000000000,0.000000000,0.000000000,0.000000000,-1.570700000,0.200000000,0.000000000,0.000000000,0.000000000,0.000000000,0.000000000,0.000000000,0.000000000,0.000000000,0.000000000
1760481385.795044,0.008632352,0.000000116,0.000001558,-0.000018965,0.000000000,0.000000000,-0.003688737,0.000001452,0.000023790,0.000065606,-1.579332352,0.199999884,-0.000001558,0.000018965,0.000000000,0.000000000,0.003688737,-0.000001452,-0.000023790,-0.000065606,794777346.000000000,1760481385.000000000,0.000000000,0.000000000,0.000000000,0.000000000,0.000000000,0.000000000,0.000000000,0.000000000,0.000000000,0.000000000,0.004316176,0.000000012,0.000000156,-0.000001896,0.000000000,0.000000000,0.000000000,0.000000000,-1.570700000,0.200000000,0.000000000,0.000000000,0.000000000,0.000000000,0.000000000,0.000000000,0.000000000,0.000000000,0.000000000
1760481385.815050,0.008572032,-0.000000003,0.000009547,-0.000034944,0.000000000,0.000000000,-0.003631142,0.000000925,0.000059480,0.000048684,-1.579272032,0.200000003,-0.000009547,0.000034944,0.000000000,0.000000000,0.003631142,-0.000000925,-0.000059480,-0.000048684,814781328.000000000,1760481385.000000000,0.000000000,0.000000000,0.000000000,0.000000000,0.000000000,0.000000000,0.000000000,0.000000000,0.000000000,0.000000000,0.004286016,-0.000000000,0.000000955,-0.000003494,0.000000000,0.000000000,0.000000000,0.000000000,-1.570700000,0.200000000,0.000000000,0.000000000,0.000000000,0.000000000,0.000000000,0.000000000,0.000000000,0.000000000,0.000000000
1760481385.835636,0.008511831,0.000000235,0.000009547,-0.000018965,0.000000000,0.000000000,-0.003318273,0.000000606,0.000025021,0.000004380,-1.579211831,0.199999765,-0.000009547,0.000018965,0.000000000,0.000000000,0.003318273,-0.000000606,-0.000025021,-0.000004380,835480476.000000000,1760481385.000000000,0.000000000,0.000000000,0.000000000,0.000000000,0.000000000,0.000000000,0.000000000,0.000000000,0.000000000,0.000000000,0.004255916,0.000000024,0.000000955,-0.000001896,0.000000000,0.000000000,0.000000000,0.000000000,-1.570700000,0.200000000,0.000000000,0.000000000,0.000000000,0.000000000,0.000000000,0.000000000,0.000000000,0.000000000,0.000000000
1760481385.854719,0.008467962,-0.000000003,0.000009547,-0.000018965,0.000000000,0.000000000,-0.002877343,-0.000000109,0.000044096,-0.000036540,-1.579167962,0.200000003,-0.000009547,0.000018965,0.000000000,0.000000000,0.002877343,0.000000109,-0.000044096,0.000036540,854612957.000000000,1760481385.000000000,0.000000000,0.000000000,0.000000000,0.000000000,0.000000000,0.000000000,0.000000000,0.000000000,0.000000000,0.000000000,0.004233981,-0.000000000,0.000000955,-0.000001896,0.000000000,0.000000000,0.000000000,0.000000000,-1.570700000,0.200000000,0.000000000,0.000000000,0.000000000,0.000000000,0.000000000,0.000000000,0.000000000,0.000000000,0.000000000
1760481385.874900,0.008396794,0.000000116,0.000009547,-0.000002986,0.000000000,0.000000000,-0.003123968,-0.000000184,0.000049019,0.000020686,-1.579096794,0.199999884,-0.000009547,0.000002986,0.000000000,0.000000000,0.003123968,0.000000184,-0.000049019,-0.000020686,874785679.000000000,1760481385.000000000,0.000000000,0.000000000,0.000000000,0.000000000,0.000000000,0.000000000,0.000000000,0.000000000,0.000000000,0.000000000,0.004198397,0.000000012,0.000000955,-0.000000299,0.000000000,0.000000000,0.000000000,0.000000000,-1.570700000,0.200000000,0.000000000,0.000000000,0.000000000,0.000000000,0.000000000,0.000000000,0.000000000,0.000000000,0.000000000
1760481385.894905,0.008298208,0.000000116,0.000009547,-0.000018965,0.000000000,0.000000000,-0.003587684,0.000000549,0.000041943,-0.000042693,-1.578998208,0.199999884,-0.000009547,0.000018965,0.000000000,0.000000000,0.003587684,-0.000000549,-0.000041943,0.000042693,894557550.000000000,1760481385.000000000,0.000000000,0.000000000,0.000000000,0.000000000,0.000000000,0.000000000,0.000000000,0.000000000,0.000000000,0.000000000,0.004149104,0.000000012,0.000000955,-0.000001896,0.000000000,0.000000000,0.000000000,0.000000000,-1.570700000,0.200000000,0.000000000,0.000000000,0.000000000,0.000000000,0.000000000,0.000000000,0.000000000,0.000000000,0.000000000
1760481385.914701,0.008188535,0.000000116,0.000009547,-0.000034944,0.000000000,0.000000000,-0.004050553,0.000000587,0.000066556,0.000024071,-1.578888535,0.199999884,-0.000009547,0.000034944,0.000000000,0.000000000,0.004050553,-0.000000587,-0.000066556,-0.000024071,914583013.000000000,1760481385.000000000,0.000000000,0.000000000,0.000000000,0.000000000,0.000000000,0.000000000,0.000000000,0.000000000,0.000000000,0.000000000,0.004094268,0.000000012,0.000000955,-0.000003494,0.000000000,0.000000000,0.000000000,0.000000000,-1.570700000,0.200000000,0.000000000,0.000000000,0.000000000,0.000000000,0.000000000,0.000000000,0.000000000,0.000000000,0.000000000
1760481385.934654,0.008084466,0.000000116,0.000009547,-0.000002986,0.000000000,0.000000000,-0.004476715,0.000002430,0.000048096,0.000041608,-1.578784466,0.199999884,-0.000009547,0.000002986,0.000000000,0.000000000,0.004476715,-0.000002430,-0.000048096,-0.000041608,934530087.000000000,1760481385.000000000,0.000000000,0.000000000,0.000000000,0.000000000,0.000000000,0.000000000,0.000000000,0.000000000,0.000000000,0.000000000,0.004042233,0.000000012,0.000000955,-0.000000299,0.000000000,0.000000000,0.000000000,0.000000000,-1.570700000,0.200000000,0.000000000,0.000000000,0.000000000,0.000000000,0.000000000,0.000000000,0.000000000,0.000000000,0.000000000
1760481385.954671,0.007991363,0.000000116,0.000009547,-0.000002986,0.000000000,0.000000000,-0.004563425,0.000002448,-0.000018975,0.000016071,-1.578691363,0.199999884,-0.000009547,0.000002986,0.000000000,0.000000000,0.004563425,-0.000002448,0.000018975,-0.000016071,954547976.000000000,1760481385.000000000,0.000000000,0.000000000,0.000000000,0.000000000,0.000000000,0.000000000,0.000000000,0.000000000,0.000000000,0.000000000,0.003995682,0.000000012,0.000000955,-0.000000299,0.000000000,0.000000000,0.000000000,0.000000000,-1.570700000,0.200000000,0.000000000,0.000000000,0.000000000,0.000000000,0.000000000,0.000000000,0.000000000,0.000000000,0.000000000
1760481385.974631,0.007898261,-0.000000003,0.000009547,-0.000018965,0.000000000,0.000000000,-0.004530724,0.000002298,0.000019791,-0.000005465,-1.578598261,0.200000003,-0.000009547,0.000018965,0.000000000,0.000000000,0.004530724,-0.000002298,-0.000019791,0.000005465,974531902.000000000,1760481385.000000000,0.000000000,0.000000000,0.000000000,0.000000000,0.000000000,0.000000000,0.000000000,0.000000000,0.000000000,0.000000000,0.003949130,-0.000000000,0.000000955,-0.000001896,0.000000000,0.000000000,0.000000000,0.000000000,-1.570700000,0.200000000,0.000000000,0.000000000,0.000000000,0.000000000,0.000000000,0.000000000,0.000000000,0.000000000,0.000000000
1760481385.994683,0.007805039,0.000000235,0.000017537,-0.000034944,0.000000000,0.000000000,-0.004576504,0.000001922,-0.000011591,-0.000068229,-1.578505039,0.199999765,-0.000017537,0.000034944,0.000000000,0.000000000,0.004576504,-0.000001922,0.000011591,0.000068229,994558494.000000000,1760481385.000000000,0.000000000,0.000000000,0.000000000,0.000000000,0.000000000,0.000000000,0.000000000,0.000000000,0.000000000,0.000000000,0.003902520,0.000000024,0.000001754,-0.000003494,0.000000000,0.000000000,0.000000000,0.000000000,-1.570700000,0.200000000,0.000000000,0.000000000,0.000000000,0.000000000,0.000000000,0.000000000,0.000000000,0.000000000,0.000000000
1760481386.015884,0.007700970,0.000000235,0.000001558,-0.000034944,0.000000000,0.000000000,-0.004681569,0.000001095,-0.000015591,-0.000035309,-1.578400970,0.199999765,-0.000001558,0.000034944,0.000000000,0.000000000,0.004681569,-0.000001095,0.000015591,0.000035309,15771068.000000000,1760481386.000000000,0.000000000,0.000000000,0.000000000,0.000000000,0.000000000,0.000000000,0.000000000,0.000000000,0.000000000,0.000000000,0.003850485,0.000000024,0.000000156,-0.000003494,0.000000000,0.000000000,0.000000000,0.000000000,-1.570700000,0.200000000,0.000000000,0.000000000,0.000000000,0.000000000,0.000000000,0.000000000,0.000000000,0.000000000,0.000000000
1760481386.035103,0.007613351,-0.000000003,0.000009547,-0.000018965,0.000000000,0.000000000,-0.004722709,-0.000000429,-0.000006053,-0.000005773,-1.578313351,0.200000003,-0.000009547,0.000018965,0.000000000,0.000000000,0.004722709,0.000000429,0.000006053,0.000005773,34814550.000000000,1760481386.000000000,0.000000000,0.000000000,0.000000000,0.000000000,0.000000000,0.000000000,0.000000000,0.000000000,0.000000000,0.000000000,0.003806675,-0.000000000,0.000000955,-0.000001896,0.000000000,0.000000000,0.000000000,0.000000000,-1.570700000,0.200000000,0.000000000,0.000000000,0.000000000,0.000000000,0.000000000,0.000000000,0.000000000,0.000000000,0.000000000
1760481386.054909,0.007553031,-0.000000003,0.000001558,-0.000018965,0.000000000,0.000000000,-0.004326927,-0.000002196,0.000017329,0.000062221,-1.578253031,0.200000003,-0.000001558,0.000018965,0.000000000,0.000000000,0.004326927,0.000002196,-0.000017329,-0.000062221,54792865.000000000,1760481386.000000000,0.000000000,0.000000000,0.000000000,0.000000000,0.000000000,0.000000000,0.000000000,0.000000000,0.000000000,0.000000000,0.003776515,-0.000000000,0.000000156,-0.000001896,0.000000000,0.000000000,0.000000000,0.000000000,-1.570700000,0.200000000,0.000000000,0.000000000,0.000000000,0.000000000,0.000000000,0.000000000,0.000000000,0.000000000,0.000000000
1760481386.075572,0.007509281,-0.000000003,0.000009547,-0.000018965,0.000000000,0.000000000,-0.003741902,-0.000001895,0.000033636,0.000003149,-1.578209281,0.200000003,-0.000009547,0.000018965,0.000000000,0.000000000,0.003741902,0.000001895,-0.000033636,-0.000003149,75464309.000000000,1760481386.000000000,0.000000000,0.000000000,0.000000000,0.000000000,0.000000000,0.000000000,0.000000000,0.000000000,0.000000000,0.000000000,0.003754640,-0.000000000,0.000000955,-0.000001896,0.000000000,0.000000000,0.000000000,0.000000000,-1.570700000,0.200000000,0.000000000,0.000000000,0.000000000,0.000000000,0.000000000,0.000000000,0.000000000,0.000000000,0.000000000
1760481386.095313,0.007410695,0.000000116,0.000009547,-0.000034944,0.000000000,0.000000000,-0.003814053,-0.000001952,0.000005023,0.000013918,-1.578110695,0.199999884,-0.000009547,0.000034944,0.000000000,0.000000000,0.003814053,0.000001952,-0.000005023,-0.000013918,95186790.000000000,1760481386.000000000,0.000000000,0.000000000,0.000000000,0.000000000,0.000000000,0.000000000,0.000000000,0.000000000,0.000000000,0.000000000,0.003705347,0.000000012,0.000000955,-0.000003494,0.000000000,0.000000000,0.000000000,0.000000000,-1.570700000,0.200000000,0.000000000,0.000000000,0.000000000,0.000000000,0.000000000,0.000000000,0.000000000,0.000000000,0.000000000
1760481386.116550,0.007311990,0.000000116,0.000009547,-0.000034944,0.000000000,0.000000000,-0.004202452,0.000000079,0.000014868,-0.000005465,-1.578011990,0.199999884,-0.000009547,0.000034944,0.000000000,0.000000000,0.004202452,-0.000000079,-0.000014868,0.000005465,116239253.000000000,1760481386.000000000,0.000000000,0.000000000,0.000000000,0.000000000,0.000000000,0.000000000,0.000000000,0.000000000,0.000000000,0.000000000,0.003655995,0.000000012,0.000000955,-0.000003494,0.000000000,0.000000000,0.000000000,0.000000000,-1.570700000,0.200000000,0.000000000,0.000000000,0.000000000,0.000000000,0.000000000,0.000000000,0.000000000,0.000000000,0.000000000
1760481386.135046,0.007213404,0.000000116,0.000009547,-0.000034944,0.000000000,0.000000000,-0.004431988,0.000000267,0.000042558,-0.000094381,-1.577913404,0.199999884,-0.000009547,0.000034944,0.000000000,0.000000000,0.004431988,-0.000000267,-0.000042558,0.000094381,134935939.000000000,1760481386.000000000,0.000000000,0.000000000,0.000000000,0.000000000,0.000000000,0.000000000,0.000000000,0.000000000,0.000000000,0.000000000,0.003606702,0.000000012,0.000000955,-0.000003494,0.000000000,0.000000000,0.000000000,0.000000000,-1.570700000,0.200000000,0.000000000,0.000000000,0.000000000,0.000000000,0.000000000,0.000000000,0.000000000,0.000000000,0.000000000
1760481386.155303,0.007125785,0.000000116,0.000009547,-0.000002986,0.000000000,0.000000000,-0.004451609,-0.000000391,0.000028713,0.000032993,-1.577825785,0.199999884,-0.000009547,0.000002986,0.000000000,0.000000000,0.004451609,0.000000391,-0.000028713,-0.000032993,155029013.000000000,1760481386.000000000,0.000000000,0.000000000,0.000000000,0.000000000,0.000000000,0.000000000,0.000000000,0.000000000,0.000000000,0.000000000,0.003562892,0.000000012,0.000000955,-0.000000299,0.000000000,0.000000000,0.000000000,0.000000000,-1.570700000,0.200000000,0.000000000,0.000000000,0.000000000,0.000000000,0.000000000,0.000000000,0.000000000,0.000000000,0.000000000
1760481386.174653,0.007054498,0.000000116,0.000001558,-0.000018965,0.000000000,0.000000000,-0.004218697,0.000000380,0.000058557,0.000003765,-1.577754498,0.199999884,-0.000001558,0.000018965,0.000000000,0.000000000,0.004218697,-0.000000380,-0.000058557,-0.000003765,174519790.000000000,1760481386.000000000,0.000000000,0.000000000,0.000000000,0.000000000,0.000000000,0.000000000,0.000000000,0.000000000,0.000000000,0.000000000,0.003527249,0.000000012,0.000000156,-0.000001896,0.000000000,0.000000000,0.000000000,0.000000000,-1.570700000,0.200000000,0.000000000,0.000000000,0.000000000,0.000000000,0.000000000,0.000000000,0.000000000,0.000000000,0.000000000
1760481386.194722,0.006988813,-0.000000003,0.000009547,-0.000018965,0.000000000,0.000000000,-0.003985785,0.000000248,0.000029328,-0.000036540,-1.577688813,0.200000003,-0.000009547,0.000018965,0.000000000,0.000000000,0.003985785,-0.000000248,-0.000029328,0.000036540,194605661.000000000,1760481386.000000000,0.000000000,0.000000000,0.000000000,0.000000000,0.000000000,0.000000000,0.000000000,0.000000000,0.000000000,0.000000000,0.003494407,-0.000000000,0.000000955,-0.000001896,0.000000000,0.000000000,0.000000000,0.000000000,-1.570700000,0.200000000,0.000000000,0.000000000,0.000000000,0.000000000,0.000000000,0.000000000,0.000000000,0.000000000,0.000000000
1760481386.214857,0.006917526,-0.000000003,0.000009547,-0.000018965,0.000000000,0.000000000,-0.003779244,0.000000286,-0.000003284,-0.000011003,-1.577617526,0.200000003,-0.000009547,0.000018965,0.000000000,0.000000000,0.003779244,-0.000000286,0.000003284,0.000011003,214728883.000000000,1760481386.000000000,0.000000000,0.000000000,0.000000000,0.000000000,0.000000000,0.000000000,0.000000000,0.000000000,0.000000000,0.000000000,0.003458763,-0.000000000,0.000000955,-0.000001896,0.000000000,0.000000000,0.000000000,0.000000000,-1.570700000,0.200000000,0.000000000,0.000000000,0.000000000,0.000000000,0.000000000,0.000000000,0.000000000,0.000000000,0.000000000
1760481386.234543,0.006862809,0.000000235,0.000009547,-0.000034944,0.000000000,0.000000000,-0.003687262,0.000000775,0.000008715,0.000001303,-1.577562809,0.199999765,-0.000009547,0.000034944,0.000000000,0.000000000,0.003687262,-0.000000775,-0.000008715,-0.000001303,234412309.000000000,1760481386.000000000,0.000000000,0.000000000,0.000000000,0.000000000,0.000000000,0.000000000,0.000000000,0.000000000,0.000000000,0.000000000,0.003431404,0.000000024,0.000000955,-0.000003494,0.000000000,0.000000000,0.000000000,0.000000000,-1.570700000,0.200000000,0.000000000,0.000000000,0.000000000,0.000000000,0.000000000,0.000000000,0.000000000,0.000000000,0.000000000
1760481386.256874,0.006775190,-0.000000003,0.000001558,-0.000034944,0.000000000,0.000000000,-0.003726292,-0.000000823,0.000001638,-0.000018080,-1.577475190,0.200000003,-0.000001558,0.000034944,0.000000000,0.000000000,0.003726292,0.000000823,-0.000001638,0.000018080,254812068.000000000,1760481386.000000000,0.000000000,0.000000000,0.000000000,0.000000000,0.000000000,0.000000000,0.000000000,0.000000000,0.000000000,0.000000000,0.003387595,-0.000000000,0.000000156,-0.000003494,0.000000000,0.000000000,0.000000000,0.000000000,-1.570700000,0.200000000,0.000000000,0.000000000,0.000000000,0.000000000,0.000000000,0.000000000,0.000000000,0.000000000,0.000000000
1760481386.274834,0.006698419,-0.000000003,0.000009547,-0.000018965,0.000000000,0.000000000,-0.003797600,-0.000000993,-0.000009438,0.000060991,-1.577398419,0.200000003,-0.000009547,0.000018965,0.000000000,0.000000000,0.003797600,0.000000993,0.000009438,-0.000060991,274714605.000000000,1760481386.000000000,0.000000000,0.000000000,0.000000000,0.000000000,0.000000000,0.000000000,0.000000000,0.000000000,0.000000000,0.000000000,0.003349210,-0.000000000,0.000000955,-0.000001896,0.000000000,0.000000000,0.000000000,0.000000000,-1.570700000,0.200000000,0.000000000,0.000000000,0.000000000,0.000000000,0.000000000,0.000000000,0.000000000,0.000000000,0.000000000
1760481386.295460,0.006638219,0.000000235,0.000009547,-0.000018965,0.000000000,0.000000000,-0.003612578,-0.000001387,0.000015483,-0.000047308,-1.577338219,0.199999765,-0.000009547,0.000018965,0.000000000,0.000000000,0.003612578,0.000001387,-0.000015483,0.000047308,295326790.000000000,1760481386.000000000,0.000000000,0.000000000,0.000000000,0.000000000,0.000000000,0.000000000,0.000000000,0.000000000,0.000000000,0.000000000,0.003319109,0.000000024,0.000000955,-0.000001896,0.000000000,0.000000000,0.000000000,0.000000000,-1.570700000,0.200000000,0.000000000,0.000000000,0.000000000,0.000000000,0.000000000,0.000000000,0.000000000,0.000000000,0.000000000
1760481386.314786,0.006599833,0.000000116,0.000009547,-0.000034944,0.000000000,0.000000000,-0.003205616,0.000000211,-0.000021744,0.000006226,-1.577299833,0.199999884,-0.000009547,0.000034944,0.000000000,0.000000000,0.003205616,-0.000000211,0.000021744,-0.000006226,314665401.000000000,1760481386.000000000,0.000000000,0.000000000,0.000000000,0.000000000,0.000000000,0.000000000,0.000000000,0.000000000,0.000000000,0.000000000,0.003299917,0.000000012,0.000000955,-0.000003494,0.000000000,0.000000000,0.000000000,0.000000000,-1.570700000,0.200000000,0.000000000,0.000000000,0.000000000,0.000000000,0.000000000,0.000000000,0.000000000,0.000000000,0.000000000
1760481386.334655,0.006544997,0.000000116,0.000009547,-0.000002986,0.000000000,0.000000000,-0.002941269,0.000000230,0.000003484,0.000064375,-1.577244997,0.199999884,-0.000009547,0.000002986,0.000000000,0.000000000,0.002941269,-0.000000230,-0.000003484,-0.000064375,334547420.000000000,1760481386.000000000,0.000000000,0.000000000,0.000000000,0.000000000,0.000000000,0.000000000,0.000000000,0.000000000,0.000000000,0.000000000,0.003272499,0.000000012,0.000000955,-0.000000299,0.000000000,0.000000000,0.000000000,0.000000000,-1.570700000,0.200000000,0.000000000,0.000000000,0.000000000,0.000000000,0.000000000,0.000000000,0.000000000,0.000000000,0.000000000
1760481386.354667,0.006462862,0.000000116,0.000017537,-0.000034944,0.000000000,0.000000000,-0.003195700,0.000000418,-0.000027898,-0.000049769,-1.577162862,0.199999884,-0.000017537,0.000034944,0.000000000,0.000000000,0.003195700,-0.000000418,0.000027898,0.000049769,354547568.000000000,1760481386.000000000,0.000000000,0.000000000,0.000000000,0.000000000,0.000000000,0.000000000,0.000000000,0.000000000,0.000000000,0.000000000,0.003231431,0.000000012,0.000001754,-0.000003494,0.000000000,0.000000000,0.000000000,0.000000000,-1.570700000,0.200000000,0.000000000,0.000000000,0.000000000,0.000000000,0.000000000,0.000000000,0.000000000,0.000000000,0.000000000
1760481386.374728,0.006369759,-0.000000003,0.000009547,-0.000002986,0.000000000,0.000000000,-0.003632199,-0.000000466,-0.000002669,0.000012379,-1.577069759,0.200000003,-0.000009547,0.000002986,0.000000000,0.000000000,0.003632199,0.000000466,0.000002669,-0.000012379,374625790.000000000,1760481386.000000000,0.000000000,0.000000000,0.000000000,0.000000000,0.000000000,0.000000000,0.000000000,0.000000000,0.000000000,0.000000000,0.003184880,-0.000000000,0.000000955,-0.000000299,0.000000000,0.000000000,0.000000000,0.000000000,-1.570700000,0.200000000,0.000000000,0.000000000,0.000000000,0.000000000,0.000000000,0.000000000,0.000000000,0.000000000,0.000000000
1760481386.394643,0.006271173,0.000000116,0.000009547,-0.000034944,0.000000000,0.000000000,-0.003952876,-0.000000598,0.000028098,0.000057299,-1.576971173,0.199999884,-0.000009547,0.000034944,0.000000000,0.000000000,0.003952876,0.000000598,-0.000028098,-0.000057299,394543235.000000000,1760481386.000000000,0.000000000,0.000000000,0.000000000,0.000000000,0.000000000,0.000000000,0.000000000,0.000000000,0.000000000,0.000000000,0.003135587,0.000000012,0.000000955,-0.000003494,0.000000000,0.000000000,0.000000000,0.000000000,-1.570700000,0.200000000,0.000000000,0.000000000,0.000000000,0.000000000,0.000000000,0.000000000,0.000000000,0.000000000,0.000000000
1760481386.414711,0.006188919,0.000000116,0.000009547,-0.000018965,0.000000000,0.000000000,-0.003976294,-0.000000880,0.000055480,-0.000004542,-1.576888919,0.199999884,-0.000009547,0.000018965,0.000000000,0.000000000,0.003976294,0.000000880,-0.000055480,0.000004542,414602568.000000000,1760481386.000000000,0.000000000,0.000000000,0.000000000,0.000000000,0.000000000,0.000000000,0.000000000,0.000000000,0.000000000,0.000000000,0.003094459,0.000000012,0.000000955,-0.000001896,0.000000000,0.000000000,0.000000000,0.000000000,-1.570700000,0.200000000,0.000000000,0.000000000,0.000000000,0.000000000,0.000000000,0.000000000,0.000000000,0.000000000,0.000000000
1760481386.434668,0.006128718,-0.000000122,0.000009547,-0.000018965,0.000000000,0.000000000,-0.003812369,-0.000001651,0.000008715,-0.000092227,-1.576828718,0.200000122,-0.000009547,0.000018965,0.000000000,0.000000000,0.003812369,0.000001651,-0.000008715,0.000092227,434557994.000000000,1760481386.000000000,0.000000000,0.000000000,0.000000000,0.000000000,0.000000000,0.000000000,0.000000000,0.000000000,0.000000000,0.000000000,0.003064359,-0.000000012,0.000000955,-0.000001896,0.000000000,0.000000000,0.000000000,0.000000000,-1.570700000,0.200000000,0.000000000,0.000000000,0.000000000,0.000000000,0.000000000,0.000000000,0.000000000,0.000000000,0.000000000
1760481386.454610,0.006062915,0.000000116,0.000001558,-0.000034944,0.000000000,0.000000000,-0.003642748,-0.000000372,-0.000010668,-0.000086381,-1.576762915,0.199999884,-0.000001558,0.000034944,0.000000000,0.000000000,0.003642748,0.000000372,0.000010668,0.000086381,454505698.000000000,1760481386.000000000,0.000000000,0.000000000,0.000000000,0.000000000,0.000000000,0.000000000,0.000000000,0.000000000,0.000000000,0.000000000,0.003031457,0.000000012,0.000000156,-0.000003494,0.000000000,0.000000000,0.000000000,0.000000000,-1.570700000,0.200000000,0.000000000,0.000000000,0.000000000,0.000000000,0.000000000,0.000000000,0.000000000,0.000000000,0.000000000
1760481386.474568,0.005997230,0.000000116,0.000009547,-0.000034944,0.000000000,0.000000000,-0.003576504,0.000001715,-0.000068202,0.000004380,-1.576697230,0.199999884,-0.000009547,0.000034944,0.000000000,0.000000000,0.003576504,-0.000001715,0.000068202,-0.000004380,474464179.000000000,1760481386.000000000,0.000000000,0.000000000,0.000000000,0.000000000,0.000000000,0.000000000,0.000000000,0.000000000,0.000000000,0.000000000,0.002998615,0.000000012,0.000000955,-0.000003494,0.000000000,0.000000000,0.000000000,0.000000000,-1.570700000,0.200000000,0.000000000,0.000000000,0.000000000,0.000000000,0.000000000,0.000000000,0.000000000,0.000000000,0.000000000
1760481386.496608,0.005925943,0.000000235,0.000001558,-0.000018965,0.000000000,0.000000000,-0.003494436,0.000001076,-0.000009130,0.000034224,-1.576625943,0.199999765,-0.000001558,0.000018965,0.000000000,0.000000000,0.003494436,-0.000001076,0.000009130,-0.000034224,495855642.000000000,1760481386.000000000,0.000000000,0.000000000,0.000000000,0.000000000,0.000000000,0.000000000,0.000000000,0.000000000,0.000000000,0.000000000,0.002962972,0.000000024,0.000000156,-0.000001896,0.000000000,0.000000000,0.000000000,0.000000000,-1.570700000,0.200000000,0.000000000,0.000000000,0.000000000,0.000000000,0.000000000,0.000000000,0.000000000,0.000000000,0.000000000
1760481386.515075,0.005860259,-0.000000003,0.000001558,-0.000018965,0.000000000,0.000000000,-0.003481355,0.000000455,0.000013330,0.000061914,-1.576560259,0.200000003,-0.000001558,0.000018965,0.000000000,0.000000000,0.003481355,-0.000000455,-0.000013330,-0.000061914,514796272.000000000,1760481386.000000000,0.000000000,0.000000000,0.000000000,0.000000000,0.000000000,0.000000000,0.000000000,0.000000000,0.000000000,0.000000000,0.002930129,-0.000000000,0.000000156,-0.000001896,0.000000000,0.000000000,0.000000000,0.000000000,-1.570700000,0.200000000,0.000000000,0.000000000,0.000000000,0.000000000,0.000000000,0.000000000,0.000000000,0.000000000,0.000000000
1760481386.535030,0.005783488,0.000000235,0.000001558,-0.000050923,0.000000000,0.000000000,-0.003464267,-0.000000071,-0.000004823,-0.000123917,-1.576483488,0.199999765,-0.000001558,0.000050923,0.000000000,0.000000000,0.003464267,0.000000071,0.000004823,0.000123917,534770235.000000000,1760481386.000000000,0.000000000,0.000000000,0.000000000,0.000000000,0.000000000,0.000000000,0.000000000,0.000000000,0.000000000,0.000000000,0.002891744,0.000000024,0.000000156,-0.000005092,0.000000000,0.000000000,0.000000000,0.000000000,-1.570700000,0.200000000,0.000000000,0.000000000,0.000000000,0.000000000,0.000000000,0.000000000,0.000000000,0.000000000,0.000000000
1760481386.555263,0.005734255,-0.000000003,0.000009547,-0.000034944,0.000000000,0.000000000,-0.003414900,-0.000000090,0.000008407,-0.000000543,-1.576434255,0.200000003,-0.000009547,0.000034944,0.000000000,0.000000000,0.003414900,0.000000090,-0.000008407,0.000000543,555107901.000000000,1760481386.000000000,0.000000000,0.000000000,0.000000000,0.000000000,0.000000000,0.000000000,0.000000000,0.000000000,0.000000000,0.000000000,0.002867127,-0.000000000,0.000000955,-0.000003494,0.000000000,0.000000000,0.000000000,0.000000000,-1.570700000,0.200000000,0.000000000,0.000000000,0.000000000,0.000000000,0.000000000,0.000000000,0.000000000,0.000000000,0.000000000
1760481386.575065,0.005690386,0.000000116,0.000017537,-0.000018965,0.000000000,0.000000000,-0.003066376,-0.000000222,0.000033943,-0.000050077,-1.576390386,0.199999884,-0.000017537,0.000018965,0.000000000,0.000000000,0.003066376,0.000000222,-0.000033943,0.000050077,574926531.000000000,1760481386.000000000,0.000000000,0.000000000,0.000000000,0.000000000,0.000000000,0.000000000,0.000000000,0.000000000,0.000000000,0.000000000,0.002845193,0.000000012,0.000001754,-0.000001896,0.000000000,0.000000000,0.000000000,0.000000000,-1.570700000,0.200000000,0.000000000,0.000000000,0.000000000,0.000000000,0.000000000,0.000000000,0.000000000,0.000000000,0.000000000
1760481386.596325,0.005652000,0.000000116,0.000009547,-0.000002986,0.000000000,0.000000000,-0.002689371,-0.000001782,0.000039174,0.000030532,-1.576352000,0.199999884,-0.000009547,0.000002986,0.000000000,0.000000000,0.002689371,0.000001782,-0.000039174,-0.000030532,596038272.000000000,1760481386.000000000,0.000000000,0.000000000,0.000000000,0.000000000,0.000000000,0.000000000,0.000000000,0.000000000,0.000000000,0.000000000,0.002826000,0.000000012,0.000000955,-0.000000299,0.000000000,0.000000000,0.000000000,0.000000000,-1.570700000,0.200000000,0.000000000,0.000000000,0.000000000,0.000000000,0.000000000,0.000000000,0.000000000,0.000000000,0.000000000
1760481386.615792,0.005619218,0.000000116,0.000009547,-0.000018965,0.000000000,0.000000000,-0.002336837,-0.000001688,0.000035789,0.000035762,-1.576319218,0.199999884,-0.000009547,0.000018965,0.000000000,0.000000000,0.002336837,0.000001688,-0.000035789,-0.000035762,614921457.000000000,1760481386.000000000,0.000000000,0.000000000,0.000000000,0.000000000,0.000000000,0.000000000,0.000000000,0.000000000,0.000000000,0.000000000,0.002809609,0.000000012,0.000000955,-0.000001896,0.000000000,0.000000000,0.000000000,0.000000000,-1.570700000,0.200000000,0.000000000,0.000000000,0.000000000,0.000000000,0.000000000,0.000000000,0.000000000,0.000000000,0.000000000
1760481386.635528,0.005586316,0.000000116,0.000001558,-0.000018965,0.000000000,0.000000000,-0.002137891,-0.000000447,0.000043481,0.000031762,-1.576286316,0.199999884,-0.000001558,0.000018965,0.000000000,0.000000000,0.002137891,0.000000447,-0.000043481,-0.000031762,635225012.000000000,1760481386.000000000,0.000000000,0.000000000,0.000000000,0.000000000,0.000000000,0.000000000,0.000000000,0.000000000,0.000000000,0.000000000,0.002793158,0.000000012,0.000000156,-0.000001896,0.000000000,0.000000000,0.000000000,0.000000000,-1.570700000,0.200000000,0.000000000,0.000000000,0.000000000,0.000000000,0.000000000,0.000000000,0.000000000,0.000000000,0.000000000
1760481386.654728,0.005536963,0.000000235,0.000009547,-0.000018965,0.000000000,0.000000000,-0.002285361,0.000000436,0.000036405,0.000037608,-1.576236963,0.199999765,-0.000009547,0.000018965,0.000000000,0.000000000,0.002285361,-0.000000436,-0.000036405,-0.000037608,654632531.000000000,1760481386.000000000,0.000000000,0.000000000,0.000000000,0.000000000,0.000000000,0.000000000,0.000000000,0.000000000,0.000000000,0.000000000,0.002768482,0.000000024,0.000000955,-0.000001896,0.000000000,0.000000000,0.000000000,0.000000000,-1.570700000,0.200000000,0.000000000,0.000000000,0.000000000,0.000000000,0.000000000,0.000000000,0.000000000,0.000000000,0.000000000
1760481386.674774,0.005471279,0.000000116,0.000017537,-0.000034944,0.000000000,0.000000000,-0.002443589,0.000000211,0.000015483,0.000019148,-1.576171279,0.199999884,-0.000017537,0.000034944,0.000000000,0.000000000,0.002443589,-0.000000211,-0.000015483,-0.000019148,674667327.000000000,1760481386.000000000,0.000000000,0.000000000,0.000000000,0.000000000,0.000000000,0.000000000,0.000000000,0.000000000,0.000000000,0.000000000,0.002735639,0.000000012,0.000001754,-0.000003494,0.000000000,0.000000000,0.000000000,0.000000000,-1.570700000,0.200000000,0.000000000,0.000000000,0.000000000,0.000000000,0.000000000,0.000000000,0.000000000,0.000000000,0.000000000
1760481386.694813,0.005421926,0.000000235,0.000009547,-0.000002986,0.000000000,0.000000000,-0.002494222,-0.000000335,0.000033636,0.000042223,-1.576121926,0.199999765,-0.000009547,0.000002986,0.000000000,0.000000000,0.002494222,0.000000335,-0.000033636,-0.000042223,694665401.000000000,1760481386.000000000,0.000000000,0.000000000,0.000000000,0.000000000,0.000000000,0.000000000,0.000000000,0.000000000,0.000000000,0.000000000,0.002710963,0.000000024,0.000000955,-0.000000299,0.000000000,0.000000000,0.000000000,0.000000000,-1.570700000,0.200000000,0.000000000,0.000000000,0.000000000,0.000000000,0.000000000,0.000000000,0.000000000,0.000000000,0.000000000
