__time,/velocity_joint_trajectory_controller/controller_state/error/positions[0],/velocity_joint_trajectory_controller/controller_state/error/positions[1],/velocity_joint_trajectory_controller/controller_state/error/positions[2],/velocity_joint_trajectory_controller/controller_state/error/positions[3],/velocity_joint_trajectory_controller/controller_state/error/time_from_start/nanosec,/velocity_joint_trajectory_controller/controller_state/error/time_from_start/sec,/velocity_joint_trajectory_controller/controller_state/error/velocities[0],/velocity_joint_trajectory_controller/controller_state/error/velocities[1],/velocity_joint_trajectory_controller/controller_state/error/velocities[2],/velocity_joint_trajectory_controller/controller_state/error/velocities[3],/velocity_joint_trajectory_controller/controller_state/feedback/positions[0],/velocity_joint_trajectory_controller/controller_state/feedback/positions[1],/velocity_joint_trajectory_controller/controller_state/feedback/positions[2],/velocity_joint_trajectory_controller/controller_state/feedback/positions[3],/velocity_joint_trajectory_controller/controller_state/feedback/time_from_start/nanosec,/velocity_joint_trajectory_controller/controller_state/feedback/time_from_start/sec,/velocity_joint_trajectory_controller/controller_state/feedback/velocities[0],/velocity_joint_trajectory_controller/controller_state/feedback/velocities[1],/velocity_joint_trajectory_controller/controller_state/feedback/velocities[2],/velocity_joint_trajectory_controller/controller_state/feedback/velocities[3],/velocity_joint_trajectory_controller/controller_state/header/stamp/nanosec,/velocity_joint_trajectory_controller/controller_state/header/stamp/sec,/velocity_joint_trajectory_controller/controller_state/multi_dof_error/time_from_start/nanosec,/velocity_joint_trajectory_controller/controller_state/multi_dof_error/time_from_start/sec,/velocity_joint_trajectory_controller/controller_state/multi_dof_feedback/time_from_start/nanosec,/velocity_joint_trajectory_controller/controller_state/multi_dof_feedback/time_from_start/sec,/velocity_joint_trajectory_controller/controller_state/multi_dof_output/time_from_start/nanosec,/velocity_joint_trajectory_controller/controller_state/multi_dof_output/time_from_start/sec,/velocity_joint_trajectory_controller/controller_state/multi_dof_reference/time_from_start/nanosec,/velocity_joint_trajectory_controller/controller_state/multi_dof_reference/time_from_start/sec,/velocity_joint_trajectory_controller/controller_state/output/time_from_start/nanosec,/velocity_joint_trajectory_controller/controller_state/output/time_from_start/sec,/velocity_joint_trajectory_controller/controller_state/output/velocities[0],/velocity_joint_trajectory_controller/controller_state/output/velocities[1],/velocity_joint_trajectory_controller/controller_state/output/velocities[2],/velocity_joint_trajectory_controller/controller_state/output/velocities[3],/velocity_joint_trajectory_controller/controller_state/reference/accelerations[0],/velocity_joint_trajectory_controller/controller_state/reference/accelerations[1],/velocity_joint_trajectory_controller/controller_state/reference/accelerations[2],/velocity_joint_trajectory_controller/controller_state/reference/accelerations[3],/velocity_joint_trajectory_controller/controller_state/reference/positions[0],/velocity_joint_trajectory_controller/controller_state/reference/positions[1],/velocity_joint_trajectory_controller/controller_state/reference/positions[2],/velocity_joint_trajectory_controller/controller_state/reference/positions[3],/velocity_joint_trajectory_controller/controller_state/reference/time_from_start/nanosec,/velocity_joint_trajectory_controller/controller_state/reference/time_from_start/sec,/velocity_joint_trajectory_controller/controller_state/reference/velocities[0],/velocity_joint_trajectory_controller/controller_state/reference/velocities[1],/velocity_joint_trajectory_controller/controller_state/reference/velocities[2],/velocity_joint_trajectory_controller/controller_state/reference/velocities[3],/velocity_joint_trajectory_controller/controller_state/speed_scaling_factor
1760476679.623663,0.316380156,0.000000609,0.000012136,-0.000014339,0.000000000,0.000000000,0.000371618,-0.000000909,0.000124308,0.000053665,0.286788017,0.199999392,-0.000017537,0.000034944,0.000000000,0.000000000,0.313776970,0.000000909,-0.000122554,-0.000060355,623552688.000000000,1760476679.000000000,0.000000000,0.000000000,0.000000000,0.000000000,0.000000000,0.000000000,0.000000000,0.000000000,0.000000000,0.000000000,0.314148588,0.000000061,0.000001214,-0.000001434,0.000000000,0.000000000,0.000000000,0.000000000,0.603168173,0.200000001,-0.000005401,0.000020605,0.000000000,0.000000000,0.314148588,-0.000000000,0.000001754,-0.000006690,0.000000000
1760476679.643497,0.316462863,0.000000609,0.000020160,-0.000030450,0.000000000,0.000000000,-0.000541465,-0.000000458,-0.000057523,-0.000012791,0.292918593,0.199999392,-0.000025526,0.000050923,0.000000000,0.000000000,0.314690053,0.000000458,0.000059276,0.000006101,643330911.000000000,1760476679.000000000,0.000000000,0.000000000,0.000000000,0.000000000,0.000000000,0.000000000,0.000000000,0.000000000,0.000000000,0.000000000,0.314148588,0.000000061,0.000002016,-0.000003045,0.000000000,0.000000000,0.000000000,0.000000000,0.609381456,0.200000001,-0.000005366,0.000020472,0.000000000,0.000000000,0.314148588,-0.000000000,0.000001754,-0.000006690,0.000000000
1760476679.663419,0.316530828,0.000000370,0.000020195,-0.000014605,0.000000000,0.000000000,-0.001110660,-0.000000383,-0.000107672,-0.000074324,0.299125612,0.199999630,-0.000025526,0.000034944,0.000000000,0.000000000,0.315259248,0.000000382,0.000109426,0.000067634,663305373.000000000,1760476679.000000000,0.000000000,0.000000000,0.000000000,0.000000000,0.000000000,0.000000000,0.000000000,0.000000000,0.000000000,0.000000000,0.314148588,0.000000037,0.000002019,-0.000001460,0.000000000,0.000000000,0.000000000,0.000000000,0.615656440,0.200000001,-0.000005331,0.000020339,0.000000000,0.000000000,0.314148588,-0.000000000,0.000001754,-0.000006690,0.000000000
1760476679.683663,0.316376666,0.000000490,0.000004251,-0.000046698,0.000000000,0.000000000,-0.001218276,-0.000000345,-0.000090751,-0.000012483,0.305628717,0.199999511,-0.000009547,0.000066902,0.000000000,0.000000000,0.315366864,0.000000345,0.000092504,0.000005793,683516207.000000000,1760476679.000000000,0.000000000,0.000000000,0.000000000,0.000000000,0.000000000,0.000000000,0.000000000,0.000000000,0.000000000,0.000000000,0.314148588,0.000000049,0.000000425,-0.000004670,0.000000000,0.000000000,0.000000000,0.000000000,0.622005383,0.200000001,-0.000005296,0.000020204,0.000000000,0.000000000,0.314148588,-0.000000000,0.000001754,-0.000006690,0.000000000
1760476679.703727,0.316339898,0.000000490,0.000012276,-0.000030853,0.000000000,0.000000000,-0.000866400,-0.000000665,-0.000074752,0.000012745,0.311967224,0.199999511,-0.000017537,0.000050923,0.000000000,0.000000000,0.315014988,0.000000664,0.000076506,-0.000019436,703575985.000000000,1760476679.000000000,0.000000000,0.000000000,0.000000000,0.000000000,0.000000000,0.000000000,0.000000000,0.000000000,0.000000000,0.000000000,0.314148588,0.000000049,0.000001228,-0.000003085,0.000000000,0.000000000,0.000000000,0.000000000,0.628307122,0.200000001,-0.000005261,0.000020069,0.000000000,0.000000000,0.314148588,-0.000000000,0.000001754,-0.000006690,0.000000000
1760476679.723807,0.316450949,0.000000490,0.000028290,-0.000046967,0.000000000,0.000000000,0.000537349,-0.000000590,0.000056314,-0.000030635,0.318163544,0.199999511,-0.000033516,0.000066902,0.000000000,0.000000000,0.313611239,0.000000589,-0.000054560,0.000023945,723653336.000000000,1760476679.000000000,0.000000000,0.000000000,0.000000000,0.000000000,0.000000000,0.000000000,0.000000000,0.000000000,0.000000000,0.000000000,0.314148588,0.000000049,0.000002829,-0.000004697,0.000000000,0.000000000,0.000000000,0.000000000,0.634614493,0.200000001,-0.000005226,0.000019935,0.000000000,0.000000000,0.314148588,-0.000000000,0.000001754,-0.000006690,0.000000000
1760476679.743550,0.316582587,0.000000490,0.000020335,-0.000031120,0.000000000,0.000000000,0.001307828,-0.000000195,0.000136307,-0.000013714,0.324233711,0.199999511,-0.000025526,0.000050923,0.000000000,0.000000000,0.312840760,0.000000194,-0.000134553,0.000007024,743394633.000000000,1760476679.000000000,0.000000000,0.000000000,0.000000000,0.000000000,0.000000000,0.000000000,0.000000000,0.000000000,0.000000000,0.000000000,0.314148588,0.000000049,0.000002034,-0.000003112,0.000000000,0.000000000,0.000000000,0.000000000,0.640816298,0.200000001,-0.000005191,0.000019803,0.000000000,0.000000000,0.314148588,-0.000000000,0.000001754,-0.000006690,0.000000000
1760476679.763669,0.316278641,0.000000490,0.000004392,-0.000047233,0.000000000,0.000000000,-0.000277327,0.000000351,0.000128000,0.000055511,0.330862701,0.199999511,-0.000009547,0.000066902,0.000000000,0.000000000,0.314425915,-0.000000351,-0.000126246,-0.000062201,763528392.000000000,1760476679.000000000,0.000000000,0.000000000,0.000000000,0.000000000,0.000000000,0.000000000,0.000000000,0.000000000,0.000000000,0.000000000,0.314148588,0.000000049,0.000000439,-0.000004723,0.000000000,0.000000000,0.000000000,0.000000000,0.647141342,0.200000001,-0.000005156,0.000019668,0.000000000,0.000000000,0.314148588,-0.000000000,0.000001754,-0.000006690,0.000000000
1760476679.783743,0.316178236,0.000000490,0.000012416,-0.000047368,0.000000000,0.000000000,-0.003106492,0.000000783,0.000029547,0.000000131,0.337267190,0.199999511,-0.000017537,0.000066902,0.000000000,0.000000000,0.317255080,-0.000000783,-0.000027793,-0.000006821,783596873.000000000,1760476679.000000000,0.000000000,0.000000000,0.000000000,0.000000000,0.000000000,0.000000000,0.000000000,0.000000000,0.000000000,0.000000000,0.314148588,0.000000049,0.000001242,-0.000004737,0.000000000,0.000000000,0.000000000,0.000000000,0.653445426,0.200000001,-0.000005120,0.000019534,0.000000000,0.000000000,0.314148588,-0.000000000,0.000001754,-0.000006690,0.000000000
1760476679.803500,0.315983446,0.000000490,0.000020441,-0.000047500,0.000000000,0.000000000,-0.004893856,0.000000539,-0.000085520,-0.000084785,0.343671441,0.199999511,-0.000025526,0.000066902,0.000000000,0.000000000,0.319042444,-0.000000539,0.000087274,0.000078095,803362392.000000000,1760476679.000000000,0.000000000,0.000000000,0.000000000,0.000000000,0.000000000,0.000000000,0.000000000,0.000000000,0.000000000,0.000000000,0.314148588,0.000000049,0.000002044,-0.000004750,0.000000000,0.000000000,0.000000000,0.000000000,0.659654887,0.200000001,-0.000005086,0.000019402,0.000000000,0.000000000,0.314148588,-0.000000000,0.000001754,-0.000006690,0.000000000
1760476679.823552,0.316080441,0.000000490,0.000004497,-0.000015676,0.000000000,0.000000000,-0.004850404,0.000000783,-0.000087366,-0.000039865,0.349873096,0.199999511,-0.000009547,0.000034944,0.000000000,0.000000000,0.318998992,-0.000000783,0.000089120,0.000033175,823411984.000000000,1760476679.000000000,0.000000000,0.000000000,0.000000000,0.000000000,0.000000000,0.000000000,0.000000000,0.000000000,0.000000000,0.000000000,0.314148588,0.000000049,0.000000450,-0.000001568,0.000000000,0.000000000,0.000000000,0.000000000,0.665953537,0.200000001,-0.000005051,0.000019268,0.000000000,0.000000000,0.314148588,-0.000000000,0.000001754,-0.000006690,0.000000000
1760476679.843572,0.315870541,0.000000490,0.000012521,-0.000015810,0.000000000,0.000000000,-0.003393011,0.000001028,-0.000077521,-0.000009714,0.356365025,0.199999511,-0.000017537,0.000034944,0.000000000,0.000000000,0.317541599,-0.000001028,0.000079275,0.000003024,843408799.000000000,1760476679.000000000,0.000000000,0.000000000,0.000000000,0.000000000,0.000000000,0.000000000,0.000000000,0.000000000,0.000000000,0.000000000,0.314148588,0.000000049,0.000001252,-0.000001581,0.000000000,0.000000000,0.000000000,0.000000000,0.672235566,0.200000001,-0.000005016,0.000019134,0.000000000,0.000000000,0.314148588,-0.000000000,0.000001754,-0.000006690,0.000000000
1760476679.863681,0.315914224,0.000000490,0.000020546,-0.000015945,0.000000000,0.000000000,-0.001788752,0.000001422,0.000035393,0.000021053,0.362643629,0.199999511,-0.000025526,0.000034944,0.000000000,0.000000000,0.315937340,-0.000001423,-0.000033639,-0.000027743,863535003.000000000,1760476679.000000000,0.000000000,0.000000000,0.000000000,0.000000000,0.000000000,0.000000000,0.000000000,0.000000000,0.000000000,0.000000000,0.314148588,0.000000049,0.000002055,-0.000001594,0.000000000,0.000000000,0.000000000,0.000000000,0.678557853,0.200000001,-0.000004980,0.000018999,0.000000000,0.000000000,0.314148588,-0.000000000,0.000001754,-0.000006690,0.000000000
1760476679.883595,0.316233490,0.000000370,0.000020581,-0.000048036,0.000000000,0.000000000,0.000553859,0.000000633,0.000128615,-0.000045711,0.368571103,0.199999630,-0.000025526,0.000066902,0.000000000,0.000000000,0.313594729,-0.000000633,-0.000126862,0.000039021,883418466.000000000,1760476679.000000000,0.000000000,0.000000000,0.000000000,0.000000000,0.000000000,0.000000000,0.000000000,0.000000000,0.000000000,0.000000000,0.314148588,0.000000037,0.000002058,-0.000004804,0.000000000,0.000000000,0.000000000,0.000000000,0.684804593,0.200000001,-0.000004945,0.000018866,0.000000000,0.000000000,0.314148588,-0.000000000,0.000001754,-0.000006690,0.000000000
1760476679.903587,0.316454387,0.000000370,0.000020616,-0.000016211,0.000000000,0.000000000,0.002166582,0.000000915,0.000147383,0.000080124,0.374635935,0.199999630,-0.000025526,0.000034944,0.000000000,0.000000000,0.311982006,-0.000000915,-0.000145629,-0.000086815,903427281.000000000,1760476679.000000000,0.000000000,0.000000000,0.000000000,0.000000000,0.000000000,0.000000000,0.000000000,0.000000000,0.000000000,0.000000000,0.314148588,0.000000037,0.000002062,-0.000001621,0.000000000,0.000000000,0.000000000,0.000000000,0.691090322,0.200000001,-0.000004910,0.000018732,0.000000000,0.000000000,0.314148588,-0.000000000,0.000001754,-0.000006690,0.000000000
1760476679.923604,0.316281786,0.000000609,0.000020651,-0.000048303,0.000000000,0.000000000,0.002258969,0.000000257,0.000050468,-0.000005407,0.381105930,0.199999392,-0.000025526,0.000066902,0.000000000,0.000000000,0.311889619,-0.000000257,-0.000048715,-0.000001283,923473910.000000000,1760476679.000000000,0.000000000,0.000000000,0.000000000,0.000000000,0.000000000,0.000000000,0.000000000,0.000000000,0.000000000,0.000000000,0.314148588,0.000000061,0.000002065,-0.000004830,0.000000000,0.000000000,0.000000000,0.000000000,0.697387716,0.200000001,-0.000004875,0.000018598,0.000000000,0.000000000,0.314148588,-0.000000000,0.000001754,-0.000006690,0.000000000
1760476679.943703,0.316229601,0.000000490,0.000004707,-0.000032459,0.000000000,0.000000000,0.001279218,0.000000388,-0.000054138,0.000037974,0.387466580,0.199999511,-0.000009547,0.000050923,0.000000000,0.000000000,0.312869370,-0.000000388,0.000055892,-0.000044664,943554929.000000000,1760476679.000000000,0.000000000,0.000000000,0.000000000,0.000000000,0.000000000,0.000000000,0.000000000,0.000000000,0.000000000,0.000000000,0.314148588,0.000000049,0.000000471,-0.000003246,0.000000000,0.000000000,0.000000000,0.000000000,0.703696180,0.200000001,-0.000004840,0.000018464,0.000000000,0.000000000,0.314148588,-0.000000000,0.000001754,-0.000006690,0.000000000
1760476679.963850,0.316234488,0.000000490,0.000012732,-0.000048573,0.000000000,0.000000000,0.000908298,0.000000539,-0.000139362,0.000013053,0.393788785,0.199999511,-0.000017537,0.000066902,0.000000000,0.000000000,0.313240290,-0.000000539,0.000141116,-0.000019743,963696540.000000000,1760476679.000000000,0.000000000,0.000000000,0.000000000,0.000000000,0.000000000,0.000000000,0.000000000,0.000000000,0.000000000,0.000000000,0.314148588,0.000000049,0.000001273,-0.000004857,0.000000000,0.000000000,0.000000000,0.000000000,0.710023272,0.200000001,-0.000004805,0.000018329,0.000000000,0.000000000,0.314148588,-0.000000000,0.000001754,-0.000006690,0.000000000
1760476679.983601,0.316428699,0.000000490,0.000012767,-0.000032726,0.000000000,0.000000000,0.001858426,0.000000388,-0.000159668,-0.000055249,0.399787873,0.199999511,-0.000017537,0.000050923,0.000000000,0.000000000,0.312290162,-0.000000388,0.000161422,0.000048559,983409818.000000000,1760476679.000000000,0.000000000,0.000000000,0.000000000,0.000000000,0.000000000,0.000000000,0.000000000,0.000000000,0.000000000,0.000000000,0.314148588,0.000000049,0.000001277,-0.000003273,0.000000000,0.000000000,0.000000000,0.000000000,0.716216572,0.200000001,-0.000004770,0.000018197,0.000000000,0.000000000,0.314148588,-0.000000000,0.000001754,-0.000006690,0.000000000
1760476680.003682,0.316330067,0.000000490,0.000004813,-0.000032860,0.000000000,0.000000000,0.002455039,0.000000313,-0.000083674,-0.000021406,0.406208664,0.199999511,-0.000009547,0.000050923,0.000000000,0.000000000,0.311693549,-0.000000313,0.000085428,0.000014715,3534373.000000000,1760476680.000000000,0.000000000,0.000000000,0.000000000,0.000000000,0.000000000,0.000000000,0.000000000,0.000000000,0.000000000,0.000000000,0.314148588,0.000000049,0.000000481,-0.000003286,0.000000000,0.000000000,0.000000000,0.000000000,0.722538731,0.200000001,-0.000004735,0.000018063,0.000000000,0.000000000,0.314148588,-0.000000000,0.000001754,-0.000006690,0.000000000
1760476680.023808,0.316316569,0.000000370,0.000012837,-0.000048974,0.000000000,0.000000000,0.001939846,-0.000000326,0.000043084,-0.000050942,0.412547171,0.199999630,-0.000017537,0.000066902,0.000000000,0.000000000,0.312208742,0.000000326,-0.000041330,0.000044251,23668392.000000000,1760476680.000000000,0.000000000,0.000000000,0.000000000,0.000000000,0.000000000,0.000000000,0.000000000,0.000000000,0.000000000,0.000000000,0.314148588,0.000000037,0.000001284,-0.000004897,0.000000000,0.000000000,0.000000000,0.000000000,0.728863740,0.200000001,-0.000004699,0.000017928,0.000000000,0.000000000,0.314148588,-0.000000000,0.000001754,-0.000006690,0.000000000
1760476680.043723,0.316518840,0.000000490,0.000020862,-0.000049107,0.000000000,0.000000000,0.001884175,-0.000000514,0.000128923,0.000002900,0.418600798,0.199999511,-0.000025526,0.000066902,0.000000000,0.000000000,0.312264413,0.000000514,-0.000127169,-0.000009590,43581836.000000000,1760476680.000000000,0.000000000,0.000000000,0.000000000,0.000000000,0.000000000,0.000000000,0.000000000,0.000000000,0.000000000,0.000000000,0.314148588,0.000000049,0.000002086,-0.000004911,0.000000000,0.000000000,0.000000000,0.000000000,0.735119637,0.200000001,-0.000004665,0.000017795,0.000000000,0.000000000,0.314148588,-0.000000000,0.000001754,-0.000006690,0.000000000
1760476680.063729,0.316713241,0.000000370,0.000036876,-0.000017283,0.000000000,0.000000000,0.002113743,-0.000000364,0.000093234,-0.000070632,0.424692899,0.199999630,-0.000041505,0.000034944,0.000000000,0.000000000,0.312034845,0.000000364,-0.000091480,0.000063942,63593392.000000000,1760476680.000000000,0.000000000,0.000000000,0.000000000,0.000000000,0.000000000,0.000000000,0.000000000,0.000000000,0.000000000,0.000000000,0.314148588,0.000000037,0.000003688,-0.000001728,0.000000000,0.000000000,0.000000000,0.000000000,0.741406140,0.200000001,-0.000004629,0.000017661,0.000000000,0.000000000,0.314148588,-0.000000000,0.000001754,-0.000006690,0.000000000
1760476680.083666,0.316405676,0.000000490,0.000012942,-0.000049374,0.000000000,0.000000000,0.000673218,-0.000000909,0.000054468,0.000047819,0.431261748,0.199999511,-0.000017537,0.000066902,0.000000000,0.000000000,0.313475370,0.000000909,-0.000052714,-0.000054510,83524410.000000000,1760476680.000000000,0.000000000,0.000000000,0.000000000,0.000000000,0.000000000,0.000000000,0.000000000,0.000000000,0.000000000,0.000000000,0.314148588,0.000000049,0.000001294,-0.000004937,0.000000000,0.000000000,0.000000000,0.000000000,0.747667424,0.200000001,-0.000004594,0.000017527,0.000000000,0.000000000,0.314148588,-0.000000000,0.000001754,-0.000006690,0.000000000
1760476680.103581,0.316202063,0.000000370,0.000020967,-0.000049507,0.000000000,0.000000000,-0.001020955,-0.000000815,-0.000029217,-0.000049403,0.437715411,0.199999630,-0.000025526,0.000066902,0.000000000,0.000000000,0.315169543,0.000000815,0.000030971,0.000042713,103419392.000000000,1760476680.000000000,0.000000000,0.000000000,0.000000000,0.000000000,0.000000000,0.000000000,0.000000000,0.000000000,0.000000000,0.000000000,0.314148588,0.000000037,0.000002097,-0.000004951,0.000000000,0.000000000,0.000000000,0.000000000,0.753917474,0.200000001,-0.000004560,0.000017394,0.000000000,0.000000000,0.314148588,-0.000000000,0.000001754,-0.000006690,0.000000000
1760476680.123652,0.316241353,0.000000490,0.000021002,-0.000033663,0.000000000,0.000000000,-0.000555115,0.000000069,-0.000011988,0.000005977,0.443988442,0.199999511,-0.000025526,0.000050923,0.000000000,0.000000000,0.314703703,-0.000000069,0.000013742,-0.000012667,123513244.000000000,1760476680.000000000,0.000000000,0.000000000,0.000000000,0.000000000,0.000000000,0.000000000,0.000000000,0.000000000,0.000000000,0.000000000,0.314148588,0.000000049,0.000002100,-0.000003366,0.000000000,0.000000000,0.000000000,0.000000000,0.760229796,0.200000001,-0.000004524,0.000017260,0.000000000,0.000000000,0.314148588,-0.000000000,0.000001754,-0.000006690,0.000000000
1760476680.143546,0.316741346,0.000000490,0.000021037,-0.000049775,0.000000000,0.000000000,0.001729770,0.000000163,-0.000049523,-0.000060479,0.449735254,0.199999511,-0.000025526,0.000066902,0.000000000,0.000000000,0.312418818,-0.000000163,0.000051277,0.000053789,143397910.000000000,1760476680.000000000,0.000000000,0.000000000,0.000000000,0.000000000,0.000000000,0.000000000,0.000000000,0.000000000,0.000000000,0.000000000,0.314148588,0.000000049,0.000002104,-0.000004977,0.000000000,0.000000000,0.000000000,0.000000000,0.766476600,0.200000001,-0.000004489,0.000017127,0.000000000,0.000000000,0.314148588,-0.000000000,0.000001754,-0.000006690,0.000000000
1760476680.163479,0.316516193,0.000000370,0.000021072,-0.000033929,0.000000000,0.000000000,0.001812441,-0.000000326,-0.000034448,-0.000013406,0.456221819,0.199999630,-0.000025526,0.000050923,0.000000000,0.000000000,0.312336147,0.000000326,0.000036201,0.000006716,163328614.000000000,1760476680.000000000,0.000000000,0.000000000,0.000000000,0.000000000,0.000000000,0.000000000,0.000000000,0.000000000,0.000000000,0.000000000,0.314148588,0.000000037,0.000002107,-0.000003393,0.000000000,0.000000000,0.000000000,0.000000000,0.772738012,0.200000001,-0.000004455,0.000016994,0.000000000,0.000000000,0.314148588,-0.000000000,0.000001754,-0.000006690,0.000000000
1760476680.183797,0.316514473,0.000000490,0.000021107,-0.000050044,0.000000000,0.000000000,0.000747455,0.000000426,0.000005241,0.000125967,0.462604135,0.199999511,-0.000025526,0.000066902,0.000000000,0.000000000,0.313401133,-0.000000426,-0.000003488,-0.000132657,183641132.000000000,1760476680.000000000,0.000000000,0.000000000,0.000000000,0.000000000,0.000000000,0.000000000,0.000000000,0.000000000,0.000000000,0.000000000,0.314148588,0.000000049,0.000002111,-0.000005004,0.000000000,0.000000000,0.000000000,0.000000000,0.779118608,0.200000001,-0.000004419,0.000016858,0.000000000,0.000000000,0.314148588,-0.000000000,0.000001754,-0.000006690,0.000000000
1760476680.203515,0.316419050,0.000000490,0.000005163,-0.000050176,0.000000000,0.000000000,0.000336064,0.000000670,0.000040623,-0.000000177,0.468899071,0.199999511,-0.000009547,0.000066902,0.000000000,0.000000000,0.313812524,-0.000000671,-0.000038869,-0.000006514,203374299.000000000,1760476680.000000000,0.000000000,0.000000000,0.000000000,0.000000000,0.000000000,0.000000000,0.000000000,0.000000000,0.000000000,0.000000000,0.314148588,0.000000049,0.000000516,-0.000005018,0.000000000,0.000000000,0.000000000,0.000000000,0.785318121,0.200000001,-0.000004384,0.000016726,0.000000000,0.000000000,0.314148588,-0.000000000,0.000001754,-0.000006690,0.000000000
1760476680.223674,0.316568341,0.000000609,0.000005198,-0.000050311,0.000000000,0.000000000,-0.000301497,0.000000971,-0.000076906,-0.000057402,0.475078821,0.199999392,-0.000009547,0.000066902,0.000000000,0.000000000,0.314450085,-0.000000971,0.000078659,0.000050712,223521095.000000000,1760476680.000000000,0.000000000,0.000000000,0.000000000,0.000000000,0.000000000,0.000000000,0.000000000,0.000000000,0.000000000,0.000000000,0.314148588,0.000000061,0.000000520,-0.000005031,0.000000000,0.000000000,0.000000000,0.000000000,0.791647162,0.200000001,-0.000004349,0.000016591,0.000000000,0.000000000,0.314148588,-0.000000000,0.000001754,-0.000006690,0.000000000
1760476680.243593,0.316221097,0.000000370,0.000013223,-0.000034465,0.000000000,0.000000000,-0.001613336,0.000000933,-0.000003066,-0.000009714,0.481680542,0.199999630,-0.000017537,0.000050923,0.000000000,0.000000000,0.315761924,-0.000000934,0.000004819,0.000003024,243430262.000000000,1760476680.000000000,0.000000000,0.000000000,0.000000000,0.000000000,0.000000000,0.000000000,0.000000000,0.000000000,0.000000000,0.000000000,0.314148588,0.000000037,0.000001322,-0.000003447,0.000000000,0.000000000,0.000000000,0.000000000,0.797901639,0.200000001,-0.000004314,0.000016458,0.000000000,0.000000000,0.314148588,-0.000000000,0.000001754,-0.000006690,0.000000000
1760476680.263632,0.316184533,0.000000370,0.000013258,-0.000050578,0.000000000,0.000000000,-0.002051281,0.000000821,0.000024932,-0.000049403,0.488019049,0.199999630,-0.000017537,0.000066902,0.000000000,0.000000000,0.316199869,-0.000000821,-0.000023178,0.000042713,263490595.000000000,1760476680.000000000,0.000000000,0.000000000,0.000000000,0.000000000,0.000000000,0.000000000,0.000000000,0.000000000,0.000000000,0.000000000,0.314148588,0.000000037,0.000001326,-0.000005058,0.000000000,0.000000000,0.000000000,0.000000000,0.804203582,0.200000001,-0.000004279,0.000016323,0.000000000,0.000000000,0.314148588,-0.000000000,0.000001754,-0.000006690,0.000000000
1760476680.283722,0.316499419,0.000000370,0.000013293,-0.000034734,0.000000000,0.000000000,-0.000036525,0.000000614,-0.000067676,-0.000014637,0.494012505,0.199999630,-0.000017537,0.000050923,0.000000000,0.000000000,0.314185113,-0.000000614,0.000069429,0.000007947,283571762.000000000,1760476680.000000000,0.000000000,0.000000000,0.000000000,0.000000000,0.000000000,0.000000000,0.000000000,0.000000000,0.000000000,0.000000000,0.314148588,0.000000037,0.000001329,-0.000003473,0.000000000,0.000000000,0.000000000,0.000000000,0.810511924,0.200000001,-0.000004244,0.000016189,0.000000000,0.000000000,0.314148588,-0.000000000,0.000001754,-0.000006690,0.000000000
1760476680.303669,0.316719230,0.000000370,0.000021318,-0.000050846,0.000000000,0.000000000,0.001525951,0.000001065,0.000004318,-0.000038327,0.500060797,0.199999630,-0.000025526,0.000066902,0.000000000,0.000000000,0.312622637,-0.000001065,-0.000002565,0.000031637,303524040.000000000,1760476680.000000000,0.000000000,0.000000000,0.000000000,0.000000000,0.000000000,0.000000000,0.000000000,0.000000000,0.000000000,0.000000000,0.314148588,0.000000037,0.000002132,-0.000005085,0.000000000,0.000000000,0.000000000,0.000000000,0.816780026,0.200000001,-0.000004209,0.000016056,0.000000000,0.000000000,0.314148588,-0.000000000,0.000001754,-0.000006690,0.000000000
1760476680.323575,0.316383652,0.000000370,0.000021353,-0.000035000,0.000000000,0.000000000,0.000695152,0.000000783,0.000157536,-0.000025713,0.506640613,0.199999630,-0.000025526,0.000050923,0.000000000,0.000000000,0.313453436,-0.000000783,-0.000155782,0.000019023,323400836.000000000,1760476680.000000000,0.000000000,0.000000000,0.000000000,0.000000000,0.000000000,0.000000000,0.000000000,0.000000000,0.000000000,0.000000000,0.314148588,0.000000037,0.000002135,-0.000003500,0.000000000,0.000000000,0.000000000,0.000000000,0.823024265,0.200000001,-0.000004174,0.000015923,0.000000000,0.000000000,0.314148588,-0.000000000,0.000001754,-0.000006690,0.000000000
1760476680.343667,0.316240506,0.000000370,0.000029377,-0.000051114,0.000000000,0.000000000,-0.001381593,0.000000877,0.000145229,0.000087816,0.513105214,0.199999630,-0.000033516,0.000066902,0.000000000,0.000000000,0.315530181,-0.000000877,-0.000143476,-0.000094506,343523003.000000000,1760476680.000000000,0.000000000,0.000000000,0.000000000,0.000000000,0.000000000,0.000000000,0.000000000,0.000000000,0.000000000,0.000000000,0.314148588,0.000000037,0.000002938,-0.000005111,0.000000000,0.000000000,0.000000000,0.000000000,0.829345720,0.200000001,-0.000004138,0.000015788,0.000000000,0.000000000,0.314148588,-0.000000000,0.000001754,-0.000006690,0.000000000
1760476680.363618,0.316078642,0.000000370,0.000029412,-0.000035268,0.000000000,0.000000000,-0.002873974,0.000000651,0.000126769,0.000089047,0.519536734,0.199999630,-0.000033516,0.000050923,0.000000000,0.000000000,0.317022562,-0.000000652,-0.000125016,-0.000095737,363480725.000000000,1760476680.000000000,0.000000000,0.000000000,0.000000000,0.000000000,0.000000000,0.000000000,0.000000000,0.000000000,0.000000000,0.000000000,0.314148588,0.000000037,0.000002941,-0.000003527,0.000000000,0.000000000,0.000000000,0.000000000,0.835615375,0.200000001,-0.000004103,0.000015655,0.000000000,0.000000000,0.314148588,-0.000000000,0.000001754,-0.000006690,0.000000000
1760476680.383707,0.316296517,0.000000489,0.000029448,-0.000051381,0.000000000,0.000000000,-0.004480289,0.000001385,0.000014164,0.000044435,0.525623500,0.199999511,-0.000033516,0.000066902,0.000000000,0.000000000,0.318628877,-0.000001385,-0.000012410,-0.000051125,383550206.000000000,1760476680.000000000,0.000000000,0.000000000,0.000000000,0.000000000,0.000000000,0.000000000,0.000000000,0.000000000,0.000000000,0.000000000,0.314148588,0.000000049,0.000002945,-0.000005138,0.000000000,0.000000000,0.000000000,0.000000000,0.841920017,0.200000001,-0.000004068,0.000015520,0.000000000,0.000000000,0.314148588,-0.000000000,0.000001754,-0.000006690,0.000000000
1760476680.403656,0.315934436,0.000000370,0.000013504,-0.000019557,0.000000000,0.000000000,-0.005173521,0.000001310,-0.000041832,-0.000006330,0.532258093,0.199999630,-0.000017537,0.000034944,0.000000000,0.000000000,0.319322109,-0.000001310,0.000043585,-0.000000360,403516966.000000000,1760476680.000000000,0.000000000,0.000000000,0.000000000,0.000000000,0.000000000,0.000000000,0.000000000,0.000000000,0.000000000,0.000000000,0.314148588,0.000000037,0.000001350,-0.000001956,0.000000000,0.000000000,0.000000000,0.000000000,0.848192529,0.200000001,-0.000004033,0.000015387,0.000000000,0.000000000,0.314148588,-0.000000000,0.000001754,-0.000006690,0.000000000
1760476680.423809,0.315988329,0.000000370,-0.000002440,-0.000051650,0.000000000,0.000000000,-0.003590750,0.000001535,-0.000212279,-0.000103245,0.538530827,0.199999630,-0.000001558,0.000066902,0.000000000,0.000000000,0.317739338,-0.000001535,0.000214033,0.000096555,423655836.000000000,1760476680.000000000,0.000000000,0.000000000,0.000000000,0.000000000,0.000000000,0.000000000,0.000000000,0.000000000,0.000000000,0.000000000,0.314148588,0.000000037,-0.000000244,-0.000005165,0.000000000,0.000000000,0.000000000,0.000000000,0.854519156,0.200000001,-0.000003998,0.000015252,0.000000000,0.000000000,0.314148588,-0.000000000,0.000001754,-0.000006690,0.000000000
1760476680.443620,0.316027797,0.000000489,0.000005584,-0.000051782,0.000000000,0.000000000,-0.000683175,0.000001216,-0.000156284,-0.000039250,0.544705212,0.199999511,-0.000009547,0.000066902,0.000000000,0.000000000,0.314831764,-0.000001216,0.000158037,0.000032560,443482540.000000000,1760476680.000000000,0.000000000,0.000000000,0.000000000,0.000000000,0.000000000,0.000000000,0.000000000,0.000000000,0.000000000,0.000000000,0.314148588,0.000000049,0.000000558,-0.000005178,0.000000000,0.000000000,0.000000000,0.000000000,0.860733009,0.200000001,-0.000003963,0.000015120,0.000000000,0.000000000,0.314148588,-0.000000000,0.000001754,-0.000006690,0.000000000
1760476680.463532,0.316273258,0.000000370,0.000021598,-0.000051916,0.000000000,0.000000000,0.001265747,0.000000445,0.000002164,-0.000034943,0.550736964,0.199999630,-0.000025526,0.000066902,0.000000000,0.000000000,0.312882841,-0.000000445,-0.000000411,0.000028253,463416447.000000000,1760476680.000000000,0.000000000,0.000000000,0.000000000,0.000000000,0.000000000,0.000000000,0.000000000,0.000000000,0.000000000,0.000000000,0.314148588,0.000000037,0.000002160,-0.000005192,0.000000000,0.000000000,0.000000000,0.000000000,0.867010221,0.200000001,-0.000003928,0.000014986,0.000000000,0.000000000,0.314148588,-0.000000000,0.000001754,-0.000006690,0.000000000
1760476680.483517,0.316099903,0.000000489,0.000021633,-0.000036070,0.000000000,0.000000000,0.001457317,-0.000000119,0.000129231,0.000144427,0.557184994,0.199999511,-0.000025526,0.000050923,0.000000000,0.000000000,0.312691271,0.000000119,-0.000127477,-0.000151117,483389947.000000000,1760476680.000000000,0.000000000,0.000000000,0.000000000,0.000000000,0.000000000,0.000000000,0.000000000,0.000000000,0.000000000,0.000000000,0.314148588,0.000000049,0.000002163,-0.000003607,0.000000000,0.000000000,0.000000000,0.000000000,0.873284897,0.200000001,-0.000003893,0.000014852,0.000000000,0.000000000,0.314148588,-0.000000000,0.000001754,-0.000006690,0.000000000
1760476680.503873,0.316212848,0.000000609,0.000021669,-0.000052186,0.000000000,0.000000000,0.001667900,0.000000482,0.000072005,0.000013669,0.563474357,0.199999392,-0.000025526,0.000066902,0.000000000,0.000000000,0.312480688,-0.000000483,-0.000070251,-0.000020359,503769966.000000000,1760476680.000000000,0.000000000,0.000000000,0.000000000,0.000000000,0.000000000,0.000000000,0.000000000,0.000000000,0.000000000,0.000000000,0.314148588,0.000000061,0.000002167,-0.000005219,0.000000000,0.000000000,0.000000000,0.000000000,0.879687205,0.200000001,-0.000003857,0.000014716,0.000000000,0.000000000,0.314148588,-0.000000000,0.000001754,-0.000006690,0.000000000
1760476680.523954,0.316120172,0.000000609,0.000013714,-0.000052319,0.000000000,0.000000000,0.001485569,0.000000426,-0.000068291,0.000022283,0.569829404,0.199999392,-0.000017537,0.000066902,0.000000000,0.000000000,0.312663019,-0.000000426,0.000070045,-0.000028973,523704632.000000000,1760476680.000000000,0.000000000,0.000000000,0.000000000,0.000000000,0.000000000,0.000000000,0.000000000,0.000000000,0.000000000,0.000000000,0.314148588,0.000000061,0.000001371,-0.000005232,0.000000000,0.000000000,0.000000000,0.000000000,0.885949577,0.200000001,-0.000003823,0.000014583,0.000000000,0.000000000,0.314148588,-0.000000000,0.000001754,-0.000006690,0.000000000
1760476680.543683,0.316523784,0.000000489,0.000013749,-0.000052452,0.000000000,0.000000000,0.001717253,0.000000445,-0.000093520,-0.000090938,0.575658500,0.199999511,-0.000017537,0.000066902,0.000000000,0.000000000,0.312431335,-0.000000445,0.000095273,0.000084248,543546706.000000000,1760476680.000000000,0.000000000,0.000000000,0.000000000,0.000000000,0.000000000,0.000000000,0.000000000,0.000000000,0.000000000,0.000000000,0.314148588,0.000000049,0.000001375,-0.000005245,0.000000000,0.000000000,0.000000000,0.000000000,0.892182285,0.200000001,-0.000003788,0.000014450,0.000000000,0.000000000,0.314148588,-0.000000000,0.000001754,-0.000006690,0.000000000
1760476680.563318,0.316266563,0.000000489,0.000005794,-0.000052583,0.000000000,0.000000000,0.002034111,0.000001216,-0.000089212,-0.000092169,0.582095861,0.199999511,-0.000009547,0.000066902,0.000000000,0.000000000,0.312114477,-0.000001216,0.000090966,0.000085479,563217206.000000000,1760476680.000000000,0.000000000,0.000000000,0.000000000,0.000000000,0.000000000,0.000000000,0.000000000,0.000000000,0.000000000,0.000000000,0.314148588,0.000000049,0.000000579,-0.000005258,0.000000000,0.000000000,0.000000000,0.000000000,0.898362425,0.200000001,-0.000003753,0.000014318,0.000000000,0.000000000,0.314148588,-0.000000000,0.000001754,-0.000006690,0.000000000
1760476680.583329,0.316255948,0.000000489,0.000005829,-0.000052717,0.000000000,0.000000000,0.002046807,0.000000821,-0.000025526,-0.000021405,0.588390589,0.199999511,-0.000009547,0.000066902,0.000000000,0.000000000,0.312101781,-0.000000821,0.000027279,0.000014715,583221151.000000000,1760476680.000000000,0.000000000,0.000000000,0.000000000,0.000000000,0.000000000,0.000000000,0.000000000,0.000000000,0.000000000,0.000000000,0.314148588,0.000000049,0.000000583,-0.000005272,0.000000000,0.000000000,0.000000000,0.000000000,0.904646537,0.200000001,-0.000003718,0.000014184,0.000000000,0.000000000,0.314148588,-0.000000000,0.000001754,-0.000006690,0.000000000
1760476680.603727,0.316364344,0.000000370,0.000029833,-0.000052854,0.000000000,0.000000000,0.001936240,0.000000858,0.000066159,-0.000017713,0.594685495,0.199999630,-0.000033516,0.000066902,0.000000000,0.000000000,0.312212348,-0.000000859,-0.000064405,0.000011023,603604299.000000000,1760476680.000000000,0.000000000,0.000000000,0.000000000,0.000000000,0.000000000,0.000000000,0.000000000,0.000000000,0.000000000,0.000000000,0.314148588,0.000000037,0.000002983,-0.000005285,0.000000000,0.000000000,0.000000000,0.000000000,0.911049839,0.200000001,-0.000003682,0.000014048,0.000000000,0.000000000,0.314148588,-0.000000000,0.000001754,-0.000006690,0.000000000
1760476680.623324,0.316643241,0.000000489,0.000029868,-0.000052985,0.000000000,0.000000000,0.001623137,0.000000651,0.000131077,0.000086893,0.600569367,0.199999511,-0.000033516,0.000066902,0.000000000,0.000000000,0.312525451,-0.000000652,-0.000129323,-0.000093583,623220799.000000000,1760476680.000000000,0.000000000,0.000000000,0.000000000,0.000000000,0.000000000,0.000000000,0.000000000,0.000000000,0.000000000,0.000000000,0.314148588,0.000000049,0.000002987,-0.000005298,0.000000000,0.000000000,0.000000000,0.000000000,0.917212608,0.200000001,-0.000003648,0.000013917,0.000000000,0.000000000,0.314148588,-0.000000000,0.000001754,-0.000006690,0.000000000
1760476680.643217,0.316338072,0.000000370,0.000013924,-0.000053118,0.000000000,0.000000000,0.000718100,0.000000219,0.000147691,0.000099508,0.607127070,0.199999630,-0.000017537,0.000066902,0.000000000,0.000000000,0.313430488,-0.000000219,-0.000145937,-0.000106198,643124058.000000000,1760476680.000000000,0.000000000,0.000000000,0.000000000,0.000000000,0.000000000,0.000000000,0.000000000,0.000000000,0.000000000,0.000000000,0.314148588,0.000000037,0.000001392,-0.000005312,0.000000000,0.000000000,0.000000000,0.000000000,0.923465143,0.200000001,-0.000003613,0.000013784,0.000000000,0.000000000,0.314148588,-0.000000000,0.000001754,-0.000006690,0.000000000
1760476680.663678,0.316296344,0.000000489,0.000021949,-0.000053255,0.000000000,0.000000000,-0.001219468,-0.000000270,0.000000934,0.000020130,0.613591671,0.199999511,-0.000025526,0.000066902,0.000000000,0.000000000,0.315368056,0.000000270,0.000000820,-0.000026820,663569595.000000000,1760476680.000000000,0.000000000,0.000000000,0.000000000,0.000000000,0.000000000,0.000000000,0.000000000,0.000000000,0.000000000,0.000000000,0.314148588,0.000000049,0.000002195,-0.000005325,0.000000000,0.000000000,0.000000000,0.000000000,0.929888015,0.200000001,-0.000003577,0.000013647,0.000000000,0.000000000,0.314148588,-0.000000000,0.000001754,-0.000006690,0.000000000
1760476680.683722,0.316223497,0.000000489,0.000013995,-0.000037409,0.000000000,0.000000000,-0.001548128,0.000000050,-0.000068291,-0.000046019,0.619914114,0.199999511,-0.000017537,0.000050923,0.000000000,0.000000000,0.315696716,-0.000000050,0.000070045,0.000039329,683463410.000000000,1760476680.000000000,0.000000000,0.000000000,0.000000000,0.000000000,0.000000000,0.000000000,0.000000000,0.000000000,0.000000000,0.000000000,0.314148588,0.000000049,0.000001399,-0.000003741,0.000000000,0.000000000,0.000000000,0.000000000,0.936137612,0.200000001,-0.000003542,0.000013514,0.000000000,0.000000000,0.314148588,-0.000000000,0.000001754,-0.000006690,0.000000000
1760476680.703263,0.316428019,0.000000609,0.000014029,-0.000053520,0.000000000,0.000000000,0.000512225,0.000000670,-0.000077214,-0.000029097,0.625896633,0.199999392,-0.000017537,0.000066902,0.000000000,0.000000000,0.313636363,-0.000000671,0.000078967,0.000022407,703157706.000000000,1760476680.000000000,0.000000000,0.000000000,0.000000000,0.000000000,0.000000000,0.000000000,0.000000000,0.000000000,0.000000000,0.000000000,0.314148588,0.000000061,0.000001403,-0.000005352,0.000000000,0.000000000,0.000000000,0.000000000,0.942324652,0.200000001,-0.000003508,0.000013382,0.000000000,0.000000000,0.314148588,-0.000000000,0.000001754,-0.000006690,0.000000000
1760476680.723343,0.316331493,0.000000370,0.000014064,-0.000053654,0.000000000,0.000000000,0.001603706,0.000000670,-0.000048293,-0.000052480,0.632300913,0.199999630,-0.000017537,0.000066902,0.000000000,0.000000000,0.312544882,-0.000000671,0.000050047,0.000045790,723236965.000000000,1760476680.000000000,0.000000000,0.000000000,0.000000000,0.000000000,0.000000000,0.000000000,0.000000000,0.000000000,0.000000000,0.000000000,0.314148588,0.000000037,0.000001406,-0.000005365,0.000000000,0.000000000,0.000000000,0.000000000,0.948632407,0.200000001,-0.000003473,0.000013248,0.000000000,0.000000000,0.314148588,-0.000000000,0.000001754,-0.000006690,0.000000000
1760476680.743309,0.316463085,0.000000489,0.000030078,-0.000053788,0.000000000,0.000000000,0.001472128,0.000001723,0.000013856,0.000090585,0.638442159,0.199999511,-0.000033516,0.000066902,0.000000000,0.000000000,0.312676460,-0.000001724,-0.000012102,-0.000097275,743204188.000000000,1760476680.000000000,0.000000000,0.000000000,0.000000000,0.000000000,0.000000000,0.000000000,0.000000000,0.000000000,0.000000000,0.000000000,0.314148588,0.000000049,0.000003008,-0.000005379,0.000000000,0.000000000,0.000000000,0.000000000,0.954905244,0.200000001,-0.000003438,0.000013114,0.000000000,0.000000000,0.314148588,-0.000000000,0.000001754,-0.000006690,0.000000000
1760476680.763479,0.316510798,0.000000370,0.000022124,-0.000021965,0.000000000,0.000000000,0.001057787,0.000002287,0.000085850,0.000016130,0.644726157,0.199999630,-0.000025526,0.000034944,0.000000000,0.000000000,0.313090801,-0.000002288,-0.000084096,-0.000022820,763359799.000000000,1760476680.000000000,0.000000000,0.000000000,0.000000000,0.000000000,0.000000000,0.000000000,0.000000000,0.000000000,0.000000000,0.000000000,0.314148588,0.000000037,0.000002212,-0.000002196,0.000000000,0.000000000,0.000000000,0.000000000,0.961236955,0.200000001,-0.000003402,0.000012979,0.000000000,0.000000000,0.314148588,-0.000000000,0.000001754,-0.000006690,0.000000000
1760476680.783315,0.316573978,0.000000489,0.000030148,-0.000038076,0.000000000,0.000000000,0.000353111,0.000002080,0.000125231,0.000054896,0.650900543,0.199999511,-0.000033516,0.000050923,0.000000000,0.000000000,0.313795477,-0.000002081,-0.000123477,-0.000061586,783214799.000000000,1760476680.000000000,0.000000000,0.000000000,0.000000000,0.000000000,0.000000000,0.000000000,0.000000000,0.000000000,0.000000000,0.000000000,0.314148588,0.000000049,0.000003015,-0.000003808,0.000000000,0.000000000,0.000000000,0.000000000,0.967474521,0.200000001,-0.000003367,0.000012846,0.000000000,0.000000000,0.314148588,-0.000000000,0.000001754,-0.000006690,0.000000000
1760476680.803385,0.316248164,0.000000489,0.000006215,-0.000054190,0.000000000,0.000000000,-0.001417386,0.000001103,0.000071389,0.000068126,0.657529294,0.199999511,-0.000009547,0.000066902,0.000000000,0.000000000,0.315565974,-0.000001103,-0.000069636,-0.000074816,803278558.000000000,1760476680.000000000,0.000000000,0.000000000,0.000000000,0.000000000,0.000000000,0.000000000,0.000000000,0.000000000,0.000000000,0.000000000,0.314148588,0.000000049,0.000000622,-0.000005419,0.000000000,0.000000000,0.000000000,0.000000000,0.973777459,0.200000001,-0.000003332,0.000012712,0.000000000,0.000000000,0.314148588,-0.000000000,0.000001754,-0.000006690,0.000000000
1760476680.823488,0.316104991,0.000000489,0.000006250,-0.000038345,0.000000000,0.000000000,-0.002594220,-0.000000232,-0.000113826,-0.000104475,0.663971961,0.199999511,-0.000009547,0.000050923,0.000000000,0.000000000,0.316742808,0.000000232,0.000115580,0.000097785,823331299.000000000,1760476680.000000000,0.000000000,0.000000000,0.000000000,0.000000000,0.000000000,0.000000000,0.000000000,0.000000000,0.000000000,0.000000000,0.314148588,0.000000049,0.000000625,-0.000003834,0.000000000,0.000000000,0.000000000,0.000000000,0.980076952,0.200000001,-0.000003297,0.000012578,0.000000000,0.000000000,0.314148588,-0.000000000,0.000001754,-0.000006690,0.000000000
1760476680.843357,0.316200757,0.000000489,0.000006285,-0.000054457,0.000000000,0.000000000,-0.000406878,-0.000000007,-0.000115979,-0.000047557,0.670119107,0.199999511,-0.000009547,0.000066902,0.000000000,0.000000000,0.314555466,0.000000006,0.000117733,0.000040867,843204002.000000000,1760476680.000000000,0.000000000,0.000000000,0.000000000,0.000000000,0.000000000,0.000000000,0.000000000,0.000000000,0.000000000,0.000000000,0.314148588,0.000000049,0.000000629,-0.000005446,0.000000000,0.000000000,0.000000000,0.000000000,0.986319864,0.200000001,-0.000003262,0.000012445,0.000000000,0.000000000,0.314148588,-0.000000000,0.000001754,-0.000006690,0.000000000
1760476680.863389,0.316746805,0.000000489,0.000014310,-0.000054591,0.000000000,0.000000000,0.002143783,0.000000012,-0.000082136,-0.000073093,0.675876915,0.199999511,-0.000017537,0.000066902,0.000000000,0.000000000,0.312004805,-0.000000012,0.000083890,0.000066403,863270410.000000000,1760476680.000000000,0.000000000,0.000000000,0.000000000,0.000000000,0.000000000,0.000000000,0.000000000,0.000000000,0.000000000,0.000000000,0.314148588,0.000000049,0.000001431,-0.000005459,0.000000000,0.000000000,0.000000000,0.000000000,0.992623721,0.200000001,-0.000003227,0.000012311,0.000000000,0.000000000,0.314148588,-0.000000000,0.000001754,-0.000006690,0.000000000
1760476680.883405,0.316461278,0.000000489,0.000022334,-0.000038746,0.000000000,0.000000000,0.001272036,-0.000000101,0.000104617,0.000030283,0.682456672,0.199999511,-0.000025526,0.000050923,0.000000000,0.000000000,0.312876552,0.000000100,-0.000102864,-0.000036973,883306076.000000000,1760476680.000000000,0.000000000,0.000000000,0.000000000,0.000000000,0.000000000,0.000000000,0.000000000,0.000000000,0.000000000,0.000000000,0.314148588,0.000000049,0.000002233,-0.000003875,0.000000000,0.000000000,0.000000000,0.000000000,0.998917950,0.200000001,-0.000003192,0.000012177,0.000000000,0.000000000,0.314148588,-0.000000000,0.000001754,-0.000006690,0.000000000
1760476680.903262,0.316238047,0.000000489,0.000030359,-0.000054858,0.000000000,0.000000000,-0.000933902,-0.000000326,0.000189226,-0.000000176,0.688915730,0.199999511,-0.000033516,0.000066902,0.000000000,0.000000000,0.315082490,0.000000326,-0.000187472,-0.000006514,903155725.000000000,1760476680.000000000,0.000000000,0.000000000,0.000000000,0.000000000,0.000000000,0.000000000,0.000000000,0.000000000,0.000000000,0.000000000,0.314148588,0.000000049,0.000003036,-0.000005486,0.000000000,0.000000000,0.000000000,0.000000000,1.005153776,0.200000001,-0.000003157,0.000012044,0.000000000,0.000000000,0.314148588,-0.000000000,0.000001754,-0.000006690,0.000000000
1760476680.923378,0.316115659,0.000000608,0.000022405,-0.000054992,0.000000000,0.000000000,-0.002406823,-0.000000646,0.000160305,-0.000077708,0.695358455,0.199999392,-0.000025526,0.000066902,0.000000000,0.000000000,0.316555411,0.000000646,-0.000158551,0.000071018,923274799.000000000,1760476680.000000000,0.000000000,0.000000000,0.000000000,0.000000000,0.000000000,0.000000000,0.000000000,0.000000000,0.000000000,0.000000000,0.314148588,0.000000061,0.000002240,-0.000005499,0.000000000,0.000000000,0.000000000,0.000000000,1.011474114,0.200000001,-0.000003122,0.000011909,0.000000000,0.000000000,0.314148588,-0.000000000,0.000001754,-0.000006690,0.000000000
1760476680.943349,0.316129993,0.000000370,0.000006461,-0.000039147,0.000000000,0.000000000,-0.003918188,-0.000001116,0.000055391,0.000027514,0.701614916,0.199999630,-0.000009547,0.000050923,0.000000000,0.000000000,0.318066776,0.000001116,-0.000053637,-0.000034204,943236502.000000000,1760476680.000000000,0.000000000,0.000000000,0.000000000,0.000000000,0.000000000,0.000000000,0.000000000,0.000000000,0.000000000,0.000000000,0.314148588,0.000000037,0.000000646,-0.000003915,0.000000000,0.000000000,0.000000000,0.000000000,1.017744910,0.200000001,-0.000003087,0.000011776,0.000000000,0.000000000,0.314148588,-0.000000000,0.000001754,-0.000006690,0.000000000
1760476680.963343,0.315720668,0.000000489,0.000006496,-0.000055260,0.000000000,0.000000000,-0.005973475,-0.000000195,-0.000094443,-0.000070017,0.708309650,0.199999511,-0.000009547,0.000066902,0.000000000,0.000000000,0.320122063,0.000000194,0.000096197,0.000063327,963244076.000000000,1760476680.000000000,0.000000000,0.000000000,0.000000000,0.000000000,0.000000000,0.000000000,0.000000000,0.000000000,0.000000000,0.000000000,0.314148588,0.000000049,0.000000650,-0.000005526,0.000000000,0.000000000,0.000000000,0.000000000,1.024030319,0.200000001,-0.000003052,0.000011642,0.000000000,0.000000000,0.314148588,-0.000000000,0.000001754,-0.000006690,0.000000000
1760476680.983520,0.315756591,0.000000489,0.000006531,-0.000039415,0.000000000,0.000000000,-0.004415261,0.000000294,-0.000162745,0.000034590,0.714587986,0.199999511,-0.000009547,0.000050923,0.000000000,0.000000000,0.318563849,-0.000000294,0.000164498,-0.000041280,983343725.000000000,1760476680.000000000,0.000000000,0.000000000,0.000000000,0.000000000,0.000000000,0.000000000,0.000000000,0.000000000,0.000000000,0.000000000,0.314148588,0.000000049,0.000000653,-0.000003942,0.000000000,0.000000000,0.000000000,0.000000000,1.030344578,0.200000001,-0.000003016,0.000011508,0.000000000,0.000000000,0.314148588,-0.000000000,0.000001754,-0.000006690,0.000000000
1760476681.003387,0.316045834,0.000000489,0.000022545,-0.000055527,0.000000000,0.000000000,-0.001173454,0.000000351,-0.000091982,-0.000040788,0.720553994,0.199999511,-0.000025526,0.000066902,0.000000000,0.000000000,0.315322042,-0.000000351,0.000093735,0.000034098,3256150.000000000,1760476681.000000000,0.000000000,0.000000000,0.000000000,0.000000000,0.000000000,0.000000000,0.000000000,0.000000000,0.000000000,0.000000000,0.314148588,0.000000049,0.000002254,-0.000005553,0.000000000,0.000000000,0.000000000,0.000000000,1.036599829,0.200000001,-0.000002982,0.000011374,0.000000000,0.000000000,0.314148588,-0.000000000,0.000001754,-0.000006690,0.000000000
1760476681.023411,0.316277036,0.000000489,0.000030569,-0.000039683,0.000000000,0.000000000,0.000815524,0.000000670,0.000043392,0.000000747,0.726618767,0.199999511,-0.000033516,0.000050923,0.000000000,0.000000000,0.313333064,-0.000000671,-0.000041638,-0.000007437,23296613.000000000,1760476681.000000000,0.000000000,0.000000000,0.000000000,0.000000000,0.000000000,0.000000000,0.000000000,0.000000000,0.000000000,0.000000000,0.314148588,0.000000049,0.000003057,-0.000003968,0.000000000,0.000000000,0.000000000,0.000000000,1.042895803,0.200000001,-0.000002946,0.000011240,0.000000000,0.000000000,0.314148588,-0.000000000,0.000001754,-0.000006690,0.000000000
1760476681.043601,0.316131019,0.000000370,0.000014626,-0.000055796,0.000000000,0.000000000,0.001175446,0.000000821,0.000114463,-0.000057710,0.733099997,0.199999630,-0.000017537,0.000066902,0.000000000,0.000000000,0.312973142,-0.000000821,-0.000112709,0.000051020,43463836.000000000,1760476681.000000000,0.000000000,0.000000000,0.000000000,0.000000000,0.000000000,0.000000000,0.000000000,0.000000000,0.000000000,0.000000000,0.314148588,0.000000037,0.000001463,-0.000005580,0.000000000,0.000000000,0.000000000,0.000000000,1.049231016,0.200000000,-0.000002911,0.000011105,0.000000000,0.000000000,0.314148588,-0.000000000,0.000001754,-0.000006690,0.000000000
1760476681.063646,0.316132193,0.000000370,0.000030640,-0.000055930,0.000000000,0.000000000,0.001291526,0.000000727,0.000113232,0.000090277,0.739383698,0.199999630,-0.000033516,0.000066902,0.000000000,0.000000000,0.312857062,-0.000000727,-0.000111478,-0.000096968,63469928.000000000,1760476681.000000000,0.000000000,0.000000000,0.000000000,0.000000000,0.000000000,0.000000000,0.000000000,0.000000000,0.000000000,0.000000000,0.314148588,0.000000037,0.000003064,-0.000005593,0.000000000,0.000000000,0.000000000,0.000000000,1.055515890,0.200000000,-0.000002876,0.000010971,0.000000000,0.000000000,0.314148588,-0.000000000,0.000001754,-0.000006690,0.000000000
1760476681.083715,0.316123676,0.000000489,0.000022686,-0.000040086,0.000000000,0.000000000,0.001457287,0.000000125,0.000034162,0.000036128,0.745705903,0.199999511,-0.000025526,0.000050923,0.000000000,0.000000000,0.312691301,-0.000000125,-0.000032408,-0.000042818,83567595.000000000,1760476681.000000000,0.000000000,0.000000000,0.000000000,0.000000000,0.000000000,0.000000000,0.000000000,0.000000000,0.000000000,0.000000000,0.314148588,0.000000049,0.000002269,-0.000004009,0.000000000,0.000000000,0.000000000,0.000000000,1.061829579,0.200000000,-0.000002841,0.000010837,0.000000000,0.000000000,0.314148588,-0.000000000,0.000001754,-0.000006690,0.000000000
1760476681.103710,0.316346098,0.000000489,0.000014731,-0.000040219,0.000000000,0.000000000,0.001559807,0.000000689,-0.000077214,-0.000066017,0.751759529,0.199999511,-0.000017537,0.000050923,0.000000000,0.000000000,0.312588781,-0.000000689,0.000078967,0.000059327,103546262.000000000,1760476681.000000000,0.000000000,0.000000000,0.000000000,0.000000000,0.000000000,0.000000000,0.000000000,0.000000000,0.000000000,0.000000000,0.314148588,0.000000049,0.000001473,-0.000004022,0.000000000,0.000000000,0.000000000,0.000000000,1.068105627,0.200000000,-0.000002806,0.000010703,0.000000000,0.000000000,0.314148588,-0.000000000,0.000001754,-0.000006690,0.000000000
1760476681.124085,0.316331432,0.000000370,0.000006777,-0.000024377,0.000000000,0.000000000,0.001606209,0.000000181,-0.000136285,-0.000021098,0.758174956,0.199999630,-0.000009547,0.000034944,0.000000000,0.000000000,0.312542379,-0.000000182,0.000138039,0.000014408,123921021.000000000,1760476681.000000000,0.000000000,0.000000000,0.000000000,0.000000000,0.000000000,0.000000000,0.000000000,0.000000000,0.000000000,0.000000000,0.314148588,0.000000037,0.000000678,-0.000002438,0.000000000,0.000000000,0.000000000,0.000000000,1.074506388,0.200000000,-0.000002770,0.000010567,0.000000000,0.000000000,0.314148588,-0.000000000,0.000001754,-0.000006690,0.000000000
1760476681.143249,0.316277911,0.000000489,0.000014801,-0.000056463,0.000000000,0.000000000,0.002134843,-0.000000214,-0.000125825,-0.000023867,0.764267087,0.199999511,-0.000017537,0.000066902,0.000000000,0.000000000,0.312013745,0.000000213,0.000127578,0.000017177,143141761.000000000,1760476681.000000000,0.000000000,0.000000000,0.000000000,0.000000000,0.000000000,0.000000000,0.000000000,0.000000000,0.000000000,0.000000000,0.314148588,0.000000049,0.000001480,-0.000005646,0.000000000,0.000000000,0.000000000,0.000000000,1.080544998,0.200000000,-0.000002736,0.000010438,0.000000000,0.000000000,0.314148588,-0.000000000,0.000001754,-0.000006690,0.000000000
1760476681.163283,0.316323785,0.000000489,0.000022825,-0.000040618,0.000000000,0.000000000,0.002489222,-0.000000251,0.000020317,-0.000000484,0.770517886,0.199999511,-0.000025526,0.000050923,0.000000000,0.000000000,0.311659366,0.000000251,-0.000018563,-0.000006206,163185224.000000000,1760476681.000000000,0.000000000,0.000000000,0.000000000,0.000000000,0.000000000,0.000000000,0.000000000,0.000000000,0.000000000,0.000000000,0.314148588,0.000000049,0.000002283,-0.000004062,0.000000000,0.000000000,0.000000000,0.000000000,1.086841670,0.200000000,-0.000002701,0.000010304,0.000000000,0.000000000,0.314148588,-0.000000000,0.000001754,-0.000006690,0.000000000
1760476681.183277,0.316460227,0.000000608,0.000030850,-0.000056731,0.000000000,0.000000000,0.001689685,0.000000764,0.000161843,0.000026898,0.776659429,0.199999392,-0.000033516,0.000066902,0.000000000,0.000000000,0.312458903,-0.000000765,-0.000160090,-0.000033588,183169669.000000000,1760476681.000000000,0.000000000,0.000000000,0.000000000,0.000000000,0.000000000,0.000000000,0.000000000,0.000000000,0.000000000,0.000000000,0.314148588,0.000000061,0.000003085,-0.000005673,0.000000000,0.000000000,0.000000000,0.000000000,1.093119657,0.200000000,-0.000002666,0.000010171,0.000000000,0.000000000,0.314148588,-0.000000000,0.000001754,-0.000006690,0.000000000
1760476681.203579,0.316284473,0.000000608,0.000030885,-0.000040888,0.000000000,0.000000000,0.000655068,0.000000802,0.000139691,0.000043205,0.783200741,0.199999392,-0.000033516,0.000050923,0.000000000,0.000000000,0.313493520,-0.000000802,-0.000137938,-0.000049895,203432836.000000000,1760476681.000000000,0.000000000,0.000000000,0.000000000,0.000000000,0.000000000,0.000000000,0.000000000,0.000000000,0.000000000,0.000000000,0.314148588,0.000000061,0.000003089,-0.000004089,0.000000000,0.000000000,0.000000000,0.000000000,1.099485214,0.200000000,-0.000002630,0.000010035,0.000000000,0.000000000,0.314148588,-0.000000000,0.000001754,-0.000006690,0.000000000
1760476681.223641,0.316145383,0.000000489,0.000006952,-0.000057001,0.000000000,0.000000000,-0.001092212,0.000001159,0.000035700,0.000023206,0.789648831,0.199999511,-0.000009547,0.000066902,0.000000000,0.000000000,0.315240800,-0.000001159,-0.000033946,-0.000029896,223515706.000000000,1760476681.000000000,0.000000000,0.000000000,0.000000000,0.000000000,0.000000000,0.000000000,0.000000000,0.000000000,0.000000000,0.000000000,0.314148588,0.000000049,0.000000695,-0.000005700,0.000000000,0.000000000,0.000000000,0.000000000,1.105794214,0.200000000,-0.000002595,0.000009901,0.000000000,0.000000000,0.314148588,-0.000000000,0.000001754,-0.000006690,0.000000000
1760476681.243518,0.316241998,0.000000489,0.000022966,-0.000057134,0.000000000,0.000000000,-0.001617985,0.000000445,-0.000079982,0.000014899,0.795795977,0.199999511,-0.000025526,0.000066902,0.000000000,0.000000000,0.315766573,-0.000000445,0.000081736,-0.000021589,243390595.000000000,1760476681.000000000,0.000000000,0.000000000,0.000000000,0.000000000,0.000000000,0.000000000,0.000000000,0.000000000,0.000000000,0.000000000,0.314148588,0.000000049,0.000002297,-0.000005713,0.000000000,0.000000000,0.000000000,0.000000000,1.112037975,0.200000000,-0.000002560,0.000009768,0.000000000,0.000000000,0.314148588,-0.000000000,0.000001754,-0.000006690,0.000000000
1760476681.263485,0.316482783,0.000000370,0.000023001,-0.000041289,0.000000000,0.000000000,0.000108523,-0.000000477,-0.000089520,-0.000045096,0.801827669,0.199999630,-0.000025526,0.000050923,0.000000000,0.000000000,0.314040065,0.000000476,0.000091274,0.000038406,263357206.000000000,1760476681.000000000,0.000000000,0.000000000,0.000000000,0.000000000,0.000000000,0.000000000,0.000000000,0.000000000,0.000000000,0.000000000,0.314148588,0.000000037,0.000002300,-0.000004129,0.000000000,0.000000000,0.000000000,0.000000000,1.118310452,0.200000000,-0.000002525,0.000009634,0.000000000,0.000000000,0.314148588,-0.000000000,0.000001754,-0.000006690,0.000000000
1760476681.283575,0.316445921,0.000000489,0.000015047,-0.000057402,0.000000000,0.000000000,0.002084060,-0.000000308,-0.000088289,-0.000030020,0.808182716,0.199999511,-0.000017537,0.000066902,0.000000000,0.000000000,0.312064528,0.000000307,0.000090043,0.000023330,283469910.000000000,1760476681.000000000,0.000000000,0.000000000,0.000000000,0.000000000,0.000000000,0.000000000,0.000000000,0.000000000,0.000000000,0.000000000,0.314148588,0.000000049,0.000001505,-0.000005740,0.000000000,0.000000000,0.000000000,0.000000000,1.124628638,0.200000000,-0.000002490,0.000009500,0.000000000,0.000000000,0.314148588,-0.000000000,0.000001754,-0.000006690,0.000000000
1760476681.303517,0.316409092,0.000000370,0.000023071,-0.000041556,0.000000000,0.000000000,0.001979006,-0.000000063,0.000026162,0.000041358,0.814477444,0.199999630,-0.000025526,0.000050923,0.000000000,0.000000000,0.312169582,0.000000063,-0.000024409,-0.000048049,303390039.000000000,1760476681.000000000,0.000000000,0.000000000,0.000000000,0.000000000,0.000000000,0.000000000,0.000000000,0.000000000,0.000000000,0.000000000,0.314148588,0.000000037,0.000002307,-0.000004156,0.000000000,0.000000000,0.000000000,0.000000000,1.130886536,0.200000000,-0.000002455,0.000009366,0.000000000,0.000000000,0.314148588,-0.000000000,0.000001754,-0.000006690,0.000000000
