__time,/velocity_joint_trajectory_controller/controller_state/error/positions[0],/velocity_joint_trajectory_controller/controller_state/error/positions[1],/velocity_joint_trajectory_controller/controller_state/error/positions[2],/velocity_joint_trajectory_controller/controller_state/error/positions[3],/velocity_joint_trajectory_controller/controller_state/error/time_from_start/nanosec,/velocity_joint_trajectory_controller/controller_state/error/time_from_start/sec,/velocity_joint_trajectory_controller/controller_state/error/velocities[0],/velocity_joint_trajectory_controller/controller_state/error/velocities[1],/velocity_joint_trajectory_controller/controller_state/error/velocities[2],/velocity_joint_trajectory_controller/controller_state/error/velocities[3],/velocity_joint_trajectory_controller/controller_state/feedback/positions[0],/velocity_joint_trajectory_controller/controller_state/feedback/positions[1],/velocity_joint_trajectory_controller/controller_state/feedback/positions[2],/velocity_joint_trajectory_controller/controller_state/feedback/positions[3],/velocity_joint_trajectory_controller/controller_state/feedback/time_from_start/nanosec,/velocity_joint_trajectory_controller/controller_state/feedback/time_from_start/sec,/velocity_joint_trajectory_controller/controller_state/feedback/velocities[0],/velocity_joint_trajectory_controller/controller_state/feedback/velocities[1],/velocity_joint_trajectory_controller/controller_state/feedback/velocities[2],/velocity_joint_trajectory_controller/controller_state/feedback/velocities[3],/velocity_joint_trajectory_controller/controller_state/header/stamp/nanosec,/velocity_joint_trajectory_controller/controller_state/header/stamp/sec,/velocity_joint_trajectory_controller/controller_state/multi_dof_error/time_from_start/nanosec,/velocity_joint_trajectory_controller/controller_state/multi_dof_error/time_from_start/sec,/velocity_joint_trajectory_controller/controller_state/multi_dof_feedback/time_from_start/nanosec,/velocity_joint_trajectory_controller/controller_state/multi_dof_feedback/time_from_start/sec,/velocity_joint_trajectory_controller/controller_state/multi_dof_output/time_from_start/nanosec,/velocity_joint_trajectory_controller/controller_state/multi_dof_output/time_from_start/sec,/velocity_joint_trajectory_controller/controller_state/multi_dof_reference/time_from_start/nanosec,/velocity_joint_trajectory_controller/controller_state/multi_dof_reference/time_from_start/sec,/velocity_joint_trajectory_controller/controller_state/output/time_from_start/nanosec,/velocity_joint_trajectory_controller/controller_state/output/time_from_start/sec,/velocity_joint_trajectory_controller/controller_state/output/velocities[0],/velocity_joint_trajectory_controller/controller_state/output/velocities[1],/velocity_joint_trajectory_controller/controller_state/output/velocities[2],/velocity_joint_trajectory_controller/controller_state/output/velocities[3],/velocity_joint_trajectory_controller/controller_state/reference/accelerations[0],/velocity_joint_trajectory_controller/controller_state/reference/accelerations[1],/velocity_joint_trajectory_controller/controller_state/reference/accelerations[2],/velocity_joint_trajectory_controller/controller_state/reference/accelerations[3],/velocity_joint_trajectory_controller/controller_state/reference/positions[0],/velocity_joint_trajectory_controller/controller_state/reference/positions[1],/velocity_joint_trajectory_controller/controller_state/reference/positions[2],/velocity_joint_trajectory_controller/controller_state/reference/positions[3],/velocity_joint_trajectory_controller/controller_state/reference/time_from_start/nanosec,/velocity_joint_trajectory_controller/controller_state/reference/time_from_start/sec,/velocity_joint_trajectory_controller/controller_state/reference/velocities[0],/velocity_joint_trajectory_controller/controller_state/reference/velocities[1],/velocity_joint_trajectory_controller/controller_state/reference/velocities[2],/velocity_joint_trajectory_controller/controller_state/reference/velocities[3],/velocity_joint_trajectory_controller/controller_state/speed_scaling_factor
1760480703.590500,0.261758851,-0.000000105,-0.000014834,-0.000006108,0.000000000,0.000000000,0.130944313,-0.000000380,-0.000075855,0.000005742,-1.462059498,0.200000003,0.000006432,0.000050923,0.000000000,0.000000000,0.183921963,0.000000391,0.000076810,-0.000010834,589549438.000000000,1760480703.000000000,0.000000000,0.000000000,0.000000000,0.000000000,0.000000000,0.000000000,0.000000000,0.000000000,0.000000000,0.000000000,0.445745701,-0.000000011,-0.000001483,-0.000000611,0.000000000,0.000000000,0.000000000,0.000000000,-1.200300647,0.199999898,-0.000008402,0.000044815,0.000000000,0.000000000,0.314866276,0.000000012,0.000000955,-0.000005092,0.000000000
1760480703.610645,0.263966351,0.000000014,-0.000014815,0.000009770,0.000000000,0.000000000,0.126221121,0.000000410,-0.000223227,0.000043277,-1.458016396,0.199999884,0.000006432,0.000034944,0.000000000,0.000000000,0.188645154,-0.000000398,0.000224182,-0.000048370,609400827.000000000,1760480703.000000000,0.000000000,0.000000000,0.000000000,0.000000000,0.000000000,0.000000000,0.000000000,0.000000000,0.000000000,0.000000000,0.446849451,0.000000001,-0.000001481,0.000000977,0.000000000,0.000000000,0.000000000,0.000000000,-1.194050044,0.199999898,-0.000008383,0.000044714,0.000000000,0.000000000,0.314866276,0.000000012,0.000000955,-0.000005092,0.000000000
1760480703.631616,0.266530083,0.000000134,-0.000014794,-0.000006318,0.000000000,0.000000000,0.122201146,0.000000410,-0.000290914,-0.000015179,-1.453863621,0.199999765,0.000006432,0.000050923,0.000000000,0.000000000,0.192665130,-0.000000398,0.000291868,0.000010087,630733068.000000000,1760480703.000000000,0.000000000,0.000000000,0.000000000,0.000000000,0.000000000,0.000000000,0.000000000,0.000000000,0.000000000,0.000000000,0.448131317,0.000000013,-0.000001479,-0.000000632,0.000000000,0.000000000,0.000000000,0.000000000,-1.187333538,0.199999898,-0.000008363,0.000044605,0.000000000,0.000000000,0.314866276,0.000000012,0.000000955,-0.000005092,0.000000000
1760480703.650870,0.268758541,0.000000015,-0.000014776,-0.000006419,0.000000000,0.000000000,0.119065673,0.000000579,-0.000160155,0.000028817,-1.449847937,0.199999884,0.000006432,0.000050923,0.000000000,0.000000000,0.195800602,-0.000000568,0.000161110,-0.000033909,650562308.000000000,1760480703.000000000,0.000000000,0.000000000,0.000000000,0.000000000,0.000000000,0.000000000,0.000000000,0.000000000,0.000000000,0.000000000,0.449245546,0.000000001,-0.000001478,-0.000000642,0.000000000,0.000000000,0.000000000,0.000000000,-1.181089396,0.199999898,-0.000008344,0.000044504,0.000000000,0.000000000,0.314866276,0.000000012,0.000000955,-0.000005092,0.000000000
1760480703.669314,0.270845315,0.000000015,-0.000006768,-0.000022493,0.000000000,0.000000000,0.117299439,0.000000786,-0.000120774,-0.000040716,-1.446062326,0.199999884,-0.000001558,0.000066902,0.000000000,0.000000000,0.197566837,-0.000000774,0.000121729,0.000035623,669213308.000000000,1760480703.000000000,0.000000000,0.000000000,0.000000000,0.000000000,0.000000000,0.000000000,0.000000000,0.000000000,0.000000000,0.000000000,0.450288933,0.000000001,-0.000000677,-0.000002249,0.000000000,0.000000000,0.000000000,0.000000000,-1.175217011,0.199999899,-0.000008326,0.000044409,0.000000000,0.000000000,0.314866276,0.000000012,0.000000955,-0.000005092,0.000000000
1760480703.689393,0.273129208,0.000000134,0.000001240,-0.000006616,0.000000000,0.000000000,0.115931870,0.000000448,-0.000037089,-0.000009949,-1.442041039,0.199999765,-0.000009547,0.000050923,0.000000000,0.000000000,0.198934406,-0.000000436,0.000038044,0.000004857,689238716.000000000,1760480703.000000000,0.000000000,0.000000000,0.000000000,0.000000000,0.000000000,0.000000000,0.000000000,0.000000000,0.000000000,0.000000000,0.451430879,0.000000013,0.000000124,-0.000000662,0.000000000,0.000000000,0.000000000,0.000000000,-1.168911832,0.199999899,-0.000008307,0.000044307,0.000000000,0.000000000,0.314866276,0.000000012,0.000000955,-0.000005092,0.000000000
1760480703.711776,0.275818372,-0.000000104,0.000001261,-0.000022706,0.000000000,0.000000000,0.114204274,0.000000015,0.000075825,-0.000048100,-1.437833548,0.200000003,-0.000009547,0.000066902,0.000000000,0.000000000,0.200662002,-0.000000004,-0.000074870,0.000043007,711142568.000000000,1760480703.000000000,0.000000000,0.000000000,0.000000000,0.000000000,0.000000000,0.000000000,0.000000000,0.000000000,0.000000000,0.000000000,0.452775461,-0.000000010,0.000000126,-0.000002271,0.000000000,0.000000000,0.000000000,0.000000000,-1.162015176,0.199999899,-0.000008286,0.000044196,0.000000000,0.000000000,0.314866276,0.000000012,0.000000955,-0.000005092,0.000000000
1760480703.730788,0.277613982,0.000000135,0.000017259,-0.000006826,0.000000000,0.000000000,0.112608732,-0.000000041,0.000267193,-0.000036408,-1.433489084,0.199999765,-0.000025526,0.000050923,0.000000000,0.000000000,0.202257544,0.000000053,-0.000266239,0.000031316,730642179.000000000,1760480703.000000000,0.000000000,0.000000000,0.000000000,0.000000000,0.000000000,0.000000000,0.000000000,0.000000000,0.000000000,0.000000000,0.453673266,0.000000013,0.000001726,-0.000000683,0.000000000,0.000000000,0.000000000,0.000000000,-1.155875103,0.199999899,-0.000008268,0.000044096,0.000000000,0.000000000,0.314866276,0.000000012,0.000000955,-0.000005092,0.000000000
1760480703.749917,0.279695064,0.000000016,0.000033256,-0.000022903,0.000000000,0.000000000,0.109876246,0.000000015,0.000453332,0.000049431,-1.429539084,0.199999884,-0.000041505,0.000066902,0.000000000,0.000000000,0.204990029,-0.000000004,-0.000452377,-0.000054523,749796438.000000000,1760480703.000000000,0.000000000,0.000000000,0.000000000,0.000000000,0.000000000,0.000000000,0.000000000,0.000000000,0.000000000,0.000000000,0.454713808,0.000000002,0.000003326,-0.000002290,0.000000000,0.000000000,0.000000000,0.000000000,-1.149844020,0.199999900,-0.000008249,0.000043999,0.000000000,0.000000000,0.314866276,0.000000012,0.000000955,-0.000005092,0.000000000
1760480703.770432,0.281568496,0.000000016,0.000033276,-0.000023007,0.000000000,0.000000000,0.106892080,0.000000222,0.000422565,0.000044816,-1.424959064,0.199999884,-0.000041505,0.000066902,0.000000000,0.000000000,0.207974195,-0.000000210,-0.000421610,-0.000049908,770295049.000000000,1760480703.000000000,0.000000000,0.000000000,0.000000000,0.000000000,0.000000000,0.000000000,0.000000000,0.000000000,0.000000000,0.000000000,0.455650524,0.000000002,0.000003328,-0.000002301,0.000000000,0.000000000,0.000000000,0.000000000,-1.143390568,0.199999900,-0.000008230,0.000043894,0.000000000,0.000000000,0.314866276,0.000000012,0.000000955,-0.000005092,0.000000000
1760480703.789997,0.283547726,0.000000135,0.000025305,0.000008851,0.000000000,0.000000000,0.104069726,0.000000974,0.000287807,0.000019279,-1.420768023,0.199999765,-0.000033516,0.000034944,0.000000000,0.000000000,0.210796550,-0.000000962,-0.000286852,-0.000024372,789888512.000000000,1760480703.000000000,0.000000000,0.000000000,0.000000000,0.000000000,0.000000000,0.000000000,0.000000000,0.000000000,0.000000000,0.000000000,0.456640139,0.000000014,0.000002530,0.000000885,0.000000000,0.000000000,0.000000000,0.000000000,-1.137220296,0.199999900,-0.000008211,0.000043795,0.000000000,0.000000000,0.314866276,0.000000012,0.000000955,-0.000005092,0.000000000
1760480703.809353,0.285089237,0.000000136,0.000009344,-0.000007226,0.000000000,0.000000000,0.100052388,0.000000711,0.000038905,0.000000512,-1.416226387,0.199999765,-0.000017537,0.000050923,0.000000000,0.000000000,0.214813888,-0.000000699,-0.000037950,-0.000005604,809209067.000000000,1760480703.000000000,0.000000000,0.000000000,0.000000000,0.000000000,0.000000000,0.000000000,0.000000000,0.000000000,0.000000000,0.000000000,0.457410894,0.000000014,0.000000934,-0.000000723,0.000000000,0.000000000,0.000000000,0.000000000,-1.131137150,0.199999900,-0.000008193,0.000043696,0.000000000,0.000000000,0.314866276,0.000000012,0.000000955,-0.000005092,0.000000000
1760480703.830136,0.287036156,0.000000136,0.000009364,-0.000023311,0.000000000,0.000000000,0.096136780,0.000000861,-0.000194306,-0.000002257,-1.411624432,0.199999765,-0.000017537,0.000066902,0.000000000,0.000000000,0.218729496,-0.000000850,0.000195261,-0.000002835,830008086.000000000,1760480703.000000000,0.000000000,0.000000000,0.000000000,0.000000000,0.000000000,0.000000000,0.000000000,0.000000000,0.000000000,0.000000000,0.458384354,0.000000014,0.000000936,-0.000002331,0.000000000,0.000000000,0.000000000,0.000000000,-1.124588275,0.199999901,-0.000008173,0.000043590,0.000000000,0.000000000,0.314866276,0.000000012,0.000000955,-0.000005092,0.000000000
1760480703.849583,0.288512927,0.000000136,0.000001393,-0.000023410,0.000000000,0.000000000,0.093062387,0.000001275,-0.000238610,0.000012203,-1.406973124,0.199999765,-0.000009547,0.000066902,0.000000000,0.000000000,0.221803889,-0.000001263,0.000239565,-0.000017295,849470271.000000000,1760480703.000000000,0.000000000,0.000000000,0.000000000,0.000000000,0.000000000,0.000000000,0.000000000,0.000000000,0.000000000,0.000000000,0.459122739,0.000000014,0.000000139,-0.000002341,0.000000000,0.000000000,0.000000000,0.000000000,-1.118460196,0.199999901,-0.000008154,0.000043491,0.000000000,0.000000000,0.314866276,0.000000012,0.000000955,-0.000005092,0.000000000
1760480703.869969,0.290326502,-0.000000102,0.000001412,-0.000039492,0.000000000,0.000000000,0.089840622,0.000000673,-0.000313681,-0.000017333,-1.402458906,0.200000003,-0.000009547,0.000082881,0.000000000,0.000000000,0.225025654,-0.000000662,0.000314636,0.000012241,869566901.000000000,1760480703.000000000,0.000000000,0.000000000,0.000000000,0.000000000,0.000000000,0.000000000,0.000000000,0.000000000,0.000000000,0.000000000,0.460029526,-0.000000010,0.000000141,-0.000003949,0.000000000,0.000000000,0.000000000,0.000000000,-1.112132404,0.199999901,-0.000008135,0.000043389,0.000000000,0.000000000,0.314866276,0.000000012,0.000000955,-0.000005092,0.000000000
1760480703.890384,0.292082751,-0.000000102,-0.000006557,-0.000023618,0.000000000,0.000000000,0.087141723,0.000000955,-0.000369369,-0.000018564,-1.397703528,0.200000003,-0.000001558,0.000066902,0.000000000,0.000000000,0.227724552,-0.000000944,0.000370323,0.000013471,890247567.000000000,1760480703.000000000,0.000000000,0.000000000,0.000000000,0.000000000,0.000000000,0.000000000,0.000000000,0.000000000,0.000000000,0.000000000,0.460907651,-0.000000010,-0.000000656,-0.000002362,0.000000000,0.000000000,0.000000000,0.000000000,-1.105620778,0.199999901,-0.000008115,0.000043284,0.000000000,0.000000000,0.314866276,0.000000012,0.000000955,-0.000005092,0.000000000
1760480703.910156,0.293393194,0.000000018,-0.000006539,-0.000007739,0.000000000,0.000000000,0.084176750,0.000000767,-0.000266608,-0.000012103,-1.392866015,0.199999884,-0.000001558,0.000050923,0.000000000,0.000000000,0.230689526,-0.000000756,0.000267563,0.000007010,909773956.000000000,1760480703.000000000,0.000000000,0.000000000,0.000000000,0.000000000,0.000000000,0.000000000,0.000000000,0.000000000,0.000000000,0.000000000,0.461562873,0.000000002,-0.000000654,-0.000000774,0.000000000,0.000000000,0.000000000,0.000000000,-1.099472821,0.199999901,-0.000008097,0.000043184,0.000000000,0.000000000,0.314866276,0.000000012,0.000000955,-0.000005092,0.000000000
1760480703.936647,0.295689851,0.000000137,-0.000014504,0.000008112,0.000000000,0.000000000,0.081352220,0.000000974,-0.000119543,-0.000063175,-1.387228608,0.199999765,0.000006432,0.000034944,0.000000000,0.000000000,0.233514056,-0.000000962,0.000120498,0.000058083,934971493.000000000,1760480703.000000000,0.000000000,0.000000000,0.000000000,0.000000000,0.000000000,0.000000000,0.000000000,0.000000000,0.000000000,0.000000000,0.462711201,0.000000014,-0.000001450,0.000000811,0.000000000,0.000000000,0.000000000,0.000000000,-1.091538757,0.199999902,-0.000008072,0.000043056,0.000000000,0.000000000,0.314866276,0.000000012,0.000000955,-0.000005092,0.000000000
1760480703.951047,0.296570521,0.000000018,-0.000006500,-0.000007946,0.000000000,0.000000000,0.078762592,0.000000993,-0.000013398,-0.000035178,-1.383229375,0.199999884,-0.000001558,0.000050923,0.000000000,0.000000000,0.236103684,-0.000000981,0.000014353,0.000030085,950470030.000000000,1760480703.000000000,0.000000000,0.000000000,0.000000000,0.000000000,0.000000000,0.000000000,0.000000000,0.000000000,0.000000000,0.000000000,0.463151536,0.000000002,-0.000000650,-0.000000795,0.000000000,0.000000000,0.000000000,0.000000000,-1.086658854,0.199999902,-0.000008058,0.000042977,0.000000000,0.000000000,0.314866276,0.000000012,0.000000955,-0.000005092,0.000000000
1760480703.971393,0.297985797,0.000000018,0.000009498,-0.000008049,0.000000000,0.000000000,0.076429279,0.000000899,0.000046289,0.000042047,-1.378287792,0.199999884,-0.000017537,0.000050923,0.000000000,0.000000000,0.238436997,-0.000000887,-0.000045334,-0.000047139,970659549.000000000,1760480703.000000000,0.000000000,0.000000000,0.000000000,0.000000000,0.000000000,0.000000000,0.000000000,0.000000000,0.000000000,0.000000000,0.463859174,0.000000002,0.000000950,-0.000000805,0.000000000,0.000000000,0.000000000,0.000000000,-1.080301996,0.199999902,-0.000008038,0.000042874,0.000000000,0.000000000,0.314866276,0.000000012,0.000000955,-0.000005092,0.000000000
1760480703.991150,0.299308126,0.000000019,0.000017507,0.000007829,0.000000000,0.000000000,0.072704733,0.000000692,0.000245964,0.000064506,-1.373357058,0.199999884,-0.000025526,0.000034944,0.000000000,0.000000000,0.242161542,-0.000000680,-0.000245010,-0.000069599,990526178.000000000,1760480703.000000000,0.000000000,0.000000000,0.000000000,0.000000000,0.000000000,0.000000000,0.000000000,0.000000000,0.000000000,0.000000000,0.464520338,0.000000002,0.000001751,0.000000783,0.000000000,0.000000000,0.000000000,0.000000000,-1.074048932,0.199999902,-0.000008019,0.000042773,0.000000000,0.000000000,0.314866276,0.000000012,0.000000955,-0.000005092,0.000000000
1760480704.010015,0.300191530,0.000000019,0.000025515,-0.000008248,0.000000000,0.000000000,0.068383829,0.000001012,0.000370569,0.000029125,-1.368141532,0.199999884,-0.000033516,0.000050923,0.000000000,0.000000000,0.246482447,-0.000001000,-0.000369615,-0.000034217,9887641.000000000,1760480704.000000000,0.000000000,0.000000000,0.000000000,0.000000000,0.000000000,0.000000000,0.000000000,0.000000000,0.000000000,0.000000000,0.464962041,0.000000002,0.000002551,-0.000000825,0.000000000,0.000000000,0.000000000,0.000000000,-1.067950002,0.199999903,-0.000008001,0.000042674,0.000000000,0.000000000,0.314866276,0.000000012,0.000000955,-0.000005092,0.000000000
1760480704.029540,0.301555084,0.000000019,0.000017544,-0.000008348,0.000000000,0.000000000,0.065405951,0.000000918,0.000232119,0.000021433,-1.363369823,0.199999884,-0.000025526,0.000050923,0.000000000,0.000000000,0.249460325,-0.000000906,-0.000231165,-0.000026525,29402141.000000000,1760480704.000000000,0.000000000,0.000000000,0.000000000,0.000000000,0.000000000,0.000000000,0.000000000,0.000000000,0.000000000,0.000000000,0.465643817,0.000000002,0.000001754,-0.000000835,0.000000000,0.000000000,0.000000000,0.000000000,-1.061814739,0.199999903,-0.000007982,0.000042575,0.000000000,0.000000000,0.314866276,0.000000012,0.000000955,-0.000005092,0.000000000
1760480704.050371,0.302507785,-0.000000100,0.000009574,-0.000008453,0.000000000,0.000000000,0.060124965,0.000000316,0.000090593,-0.000030870,-1.357831001,0.200000003,-0.000017537,0.000050923,0.000000000,0.000000000,0.254741311,-0.000000304,-0.000089638,0.000025778,49997030.000000000,1760480704.000000000,0.000000000,0.000000000,0.000000000,0.000000000,0.000000000,0.000000000,0.000000000,0.000000000,0.000000000,0.000000000,0.466120168,-0.000000010,0.000000957,-0.000000845,0.000000000,0.000000000,0.000000000,0.000000000,-1.055323217,0.199999903,-0.000007963,0.000042470,0.000000000,0.000000000,0.314866276,0.000000012,0.000000955,-0.000005092,0.000000000
1760480704.069784,0.303619144,0.000000139,0.000009593,-0.000024531,0.000000000,0.000000000,0.058555097,0.000001068,-0.000009399,0.000040816,-1.352801681,0.199999765,-0.000017537,0.000066902,0.000000000,0.000000000,0.256311178,-0.000001056,0.000010354,-0.000045908,69492086.000000000,1760480704.000000000,0.000000000,0.000000000,0.000000000,0.000000000,0.000000000,0.000000000,0.000000000,0.000000000,0.000000000,0.000000000,0.466675847,0.000000014,0.000000959,-0.000002453,0.000000000,0.000000000,0.000000000,0.000000000,-1.049182537,0.199999903,-0.000007944,0.000042371,0.000000000,0.000000000,0.314866276,0.000000012,0.000000955,-0.000005092,0.000000000
1760480704.089567,0.304349980,0.000000139,0.000017601,-0.000024632,0.000000000,0.000000000,0.055551321,0.000000166,-0.000020475,0.000005742,-1.347257495,0.199999765,-0.000025526,0.000066902,0.000000000,0.000000000,0.259314954,-0.000000154,0.000021430,-0.000010834,89422049.000000000,1760480704.000000000,0.000000000,0.000000000,0.000000000,0.000000000,0.000000000,0.000000000,0.000000000,0.000000000,0.000000000,0.000000000,0.467041266,0.000000014,0.000001760,-0.000002463,0.000000000,0.000000000,0.000000000,0.000000000,-1.042907515,0.199999904,-0.000007925,0.000042269,0.000000000,0.000000000,0.314866276,0.000000012,0.000000955,-0.000005092,0.000000000
1760480704.110944,0.305790576,-0.000000099,0.000017621,-0.000024739,0.000000000,0.000000000,0.053756208,0.000000523,-0.000023244,-0.000000104,-1.342096686,0.200000003,-0.000025526,0.000066902,0.000000000,0.000000000,0.261110067,-0.000000511,0.000024199,-0.000004989,110389327.000000000,1760480704.000000000,0.000000000,0.000000000,0.000000000,0.000000000,0.000000000,0.000000000,0.000000000,0.000000000,0.000000000,0.000000000,0.467761564,-0.000000010,0.000001762,-0.000002474,0.000000000,0.000000000,0.000000000,0.000000000,-1.036306110,0.199999904,-0.000007905,0.000042163,0.000000000,0.000000000,0.314866276,0.000000012,0.000000955,-0.000005092,0.000000000
1760480704.129654,0.306088715,0.000000020,0.000009650,-0.000024837,0.000000000,0.000000000,0.049614878,0.000000767,0.000031828,-0.000015795,-1.336360693,0.199999884,-0.000017537,0.000066902,0.000000000,0.000000000,0.265251398,-0.000000756,-0.000030874,0.000010702,129550641.000000000,1760480704.000000000,0.000000000,0.000000000,0.000000000,0.000000000,0.000000000,0.000000000,0.000000000,0.000000000,0.000000000,0.000000000,0.467910633,0.000000002,0.000000965,-0.000002484,0.000000000,0.000000000,0.000000000,0.000000000,-1.030271978,0.199999904,-0.000007887,0.000042065,0.000000000,0.000000000,0.314866276,0.000000012,0.000000955,-0.000005092,0.000000000
1760480704.149467,0.307132973,0.000000020,0.000017658,-0.000008958,0.000000000,0.000000000,0.047094436,0.000001331,-0.000008168,0.000023279,-1.331200004,0.199999884,-0.000025526,0.000050923,0.000000000,0.000000000,0.267771840,-0.000001320,0.000009123,-0.000028371,149310104.000000000,1760480704.000000000,0.000000000,0.000000000,0.000000000,0.000000000,0.000000000,0.000000000,0.000000000,0.000000000,0.000000000,0.000000000,0.468432762,0.000000002,0.000001766,-0.000000896,0.000000000,0.000000000,0.000000000,0.000000000,-1.024067030,0.199999904,-0.000007868,0.000041965,0.000000000,0.000000000,0.314866276,0.000000012,0.000000955,-0.000005092,0.000000000
1760480704.169942,0.307412260,0.000000140,-0.000014280,-0.000025041,0.000000000,0.000000000,0.041730524,0.000000184,-0.000080162,0.000006357,-1.325020194,0.199999765,0.000006432,0.000066902,0.000000000,0.000000000,0.273135751,-0.000000173,0.000081117,-0.000011450,169771160.000000000,1760480704.000000000,0.000000000,0.000000000,0.000000000,0.000000000,0.000000000,0.000000000,0.000000000,0.000000000,0.000000000,0.000000000,0.468572406,0.000000014,-0.000001428,-0.000002504,0.000000000,0.000000000,0.000000000,0.000000000,-1.017607934,0.199999904,-0.000007848,0.000041860,0.000000000,0.000000000,0.314866276,0.000000012,0.000000955,-0.000005092,0.000000000
1760480704.189755,0.308253247,-0.000000098,-0.000006271,-0.000025143,0.000000000,0.000000000,0.038222850,0.000000203,-0.000149387,-0.000048407,-1.319612980,0.200000003,-0.000001558,0.000066902,0.000000000,0.000000000,0.276643425,-0.000000192,0.000150342,0.000043315,189615512.000000000,1760480704.000000000,0.000000000,0.000000000,0.000000000,0.000000000,0.000000000,0.000000000,0.000000000,0.000000000,0.000000000,0.000000000,0.468992899,-0.000000010,-0.000000627,-0.000002514,0.000000000,0.000000000,0.000000000,0.000000000,-1.011359733,0.199999905,-0.000007829,0.000041759,0.000000000,0.000000000,0.314866276,0.000000012,0.000000955,-0.000005092,0.000000000
1760480704.209679,0.308568219,0.000000140,0.000009727,-0.000009265,0.000000000,0.000000000,0.034562082,0.000000316,-0.000098930,0.000026048,-1.313646913,0.199999765,-0.000017537,0.000050923,0.000000000,0.000000000,0.280304193,-0.000000304,0.000099885,-0.000031140,209563586.000000000,1760480704.000000000,0.000000000,0.000000000,0.000000000,0.000000000,0.000000000,0.000000000,0.000000000,0.000000000,0.000000000,0.000000000,0.469150385,0.000000014,0.000000973,-0.000000927,0.000000000,0.000000000,0.000000000,0.000000000,-1.005078693,0.199999905,-0.000007810,0.000041658,0.000000000,0.000000000,0.314866276,0.000000012,0.000000955,-0.000005092,0.000000000
1760480704.229305,0.308848819,0.000000021,0.000001756,-0.000025344,0.000000000,0.000000000,0.031880618,-0.000000041,-0.000062933,0.000032201,-1.307746530,0.199999884,-0.000009547,0.000066902,0.000000000,0.000000000,0.282985657,0.000000053,0.000063888,-0.000037294,229194289.000000000,1760480704.000000000,0.000000000,0.000000000,0.000000000,0.000000000,0.000000000,0.000000000,0.000000000,0.000000000,0.000000000,0.000000000,0.469290685,0.000000002,0.000000176,-0.000002534,0.000000000,0.000000000,0.000000000,0.000000000,-0.998897711,0.199999905,-0.000007792,0.000041558,0.000000000,0.000000000,0.314866276,0.000000012,0.000000955,-0.000005092,0.000000000
1760480704.249226,0.309853975,0.000000022,0.000009764,-0.000009467,0.000000000,0.000000000,0.031436772,-0.000000530,-0.000000169,-0.000015487,-1.302476168,0.199999884,-0.000017537,0.000050923,0.000000000,0.000000000,0.283429503,0.000000542,0.000001124,0.000010395,249125141.000000000,1760480704.000000000,0.000000000,0.000000000,0.000000000,0.000000000,0.000000000,0.000000000,0.000000000,0.000000000,0.000000000,0.000000000,0.469793263,0.000000002,0.000000976,-0.000000947,0.000000000,0.000000000,0.000000000,0.000000000,-0.992622193,0.199999905,-0.000007773,0.000041456,0.000000000,0.000000000,0.314866276,0.000000012,0.000000955,-0.000005092,0.000000000
1760480704.270721,0.310115244,0.000000141,0.000017774,-0.000025555,0.000000000,0.000000000,0.028242500,0.000000654,0.000162587,-0.000015179,-1.295973182,0.199999765,-0.000025526,0.000066902,0.000000000,0.000000000,0.286623776,-0.000000643,-0.000161632,0.000010087,270608012.000000000,1760480704.000000000,0.000000000,0.000000000,0.000000000,0.000000000,0.000000000,0.000000000,0.000000000,0.000000000,0.000000000,0.000000000,0.469923897,0.000000014,0.000001777,-0.000002555,0.000000000,0.000000000,0.000000000,0.000000000,-0.985857938,0.199999906,-0.000007752,0.000041347,0.000000000,0.000000000,0.314866276,0.000000012,0.000000955,-0.000005092,0.000000000
1760480704.289381,0.310338139,0.000000022,0.000025782,-0.000009671,0.000000000,0.000000000,0.024707706,0.000000880,0.000209967,0.000094042,-1.290330410,0.199999884,-0.000033516,0.000050923,0.000000000,0.000000000,0.290158570,-0.000000868,-0.000209013,-0.000099135,289237956.000000000,1760480704.000000000,0.000000000,0.000000000,0.000000000,0.000000000,0.000000000,0.000000000,0.000000000,0.000000000,0.000000000,0.000000000,0.470035345,0.000000002,0.000002578,-0.000000967,0.000000000,0.000000000,0.000000000,0.000000000,-0.979992271,0.199999906,-0.000007734,0.000041252,0.000000000,0.000000000,0.314866276,0.000000012,0.000000955,-0.000005092,0.000000000
1760480704.309859,0.310846489,0.000000022,0.000025801,-0.000025754,0.000000000,0.000000000,0.020528735,0.000001219,0.000191815,0.000070352,-1.284386158,0.199999884,-0.000033516,0.000066902,0.000000000,0.000000000,0.294337541,-0.000001207,-0.000190860,-0.000075444,309730938.000000000,1760480704.000000000,0.000000000,0.000000000,0.000000000,0.000000000,0.000000000,0.000000000,0.000000000,0.000000000,0.000000000,0.000000000,0.470289520,0.000000002,0.000002580,-0.000002575,0.000000000,0.000000000,0.000000000,0.000000000,-0.973539669,0.199999906,-0.000007715,0.000041148,0.000000000,0.000000000,0.314866276,0.000000012,0.000000955,-0.000005092,0.000000000
1760480704.329532,0.310419722,0.000000142,0.000009841,-0.000025854,0.000000000,0.000000000,0.013993473,0.000000448,0.000028752,-0.000006872,-1.277768135,0.199999765,-0.000017537,0.000066902,0.000000000,0.000000000,0.300872803,-0.000000436,-0.000027797,0.000001780,329393993.000000000,1760480704.000000000,0.000000000,0.000000000,0.000000000,0.000000000,0.000000000,0.000000000,0.000000000,0.000000000,0.000000000,0.000000000,0.470076137,0.000000014,0.000000984,-0.000002585,0.000000000,0.000000000,0.000000000,0.000000000,-0.967348413,0.199999906,-0.000007696,0.000041047,0.000000000,0.000000000,0.314866276,0.000000012,0.000000955,-0.000005092,0.000000000
1760480704.350330,0.310455814,0.000000276,0.000001871,-0.000025960,0.000000000,0.000000000,0.007800431,0.000000391,-0.000174923,-0.000045331,-1.271276116,0.199999630,-0.000009547,0.000066902,0.000000000,0.000000000,0.307065845,-0.000000380,0.000175878,0.000040238,350127604.000000000,1760480704.000000000,0.000000000,0.000000000,0.000000000,0.000000000,0.000000000,0.000000000,0.000000000,0.000000000,0.000000000,0.000000000,0.470094183,0.000000028,0.000000187,-0.000002596,0.000000000,0.000000000,0.000000000,0.000000000,-0.960820302,0.199999907,-0.000007676,0.000040942,0.000000000,0.000000000,0.314866276,0.000000012,0.000000955,-0.000005092,0.000000000
1760480704.369868,0.310434428,0.000000023,0.000001890,-0.000026060,0.000000000,0.000000000,0.004679085,-0.000000173,-0.000310912,-0.000037331,-1.265079975,0.199999884,-0.000009547,0.000066902,0.000000000,0.000000000,0.310187191,0.000000185,0.000311867,0.000032239,369737789.000000000,1760480704.000000000,0.000000000,0.000000000,0.000000000,0.000000000,0.000000000,0.000000000,0.000000000,0.000000000,0.000000000,0.000000000,0.470083490,0.000000002,0.000000189,-0.000002606,0.000000000,0.000000000,0.000000000,0.000000000,-0.954645547,0.199999907,-0.000007657,0.000040842,0.000000000,0.000000000,0.314866276,0.000000012,0.000000955,-0.000005092,0.000000000
1760480704.389662,0.310598582,0.000000277,0.000001909,-0.000010182,0.000000000,0.000000000,0.004028590,-0.000000361,-0.000281991,-0.000021948,-1.259009719,0.199999630,-0.000009547,0.000050923,0.000000000,0.000000000,0.310837686,0.000000373,0.000282946,0.000016856,389537882.000000000,1760480704.000000000,0.000000000,0.000000000,0.000000000,0.000000000,0.000000000,0.000000000,0.000000000,0.000000000,0.000000000,0.000000000,0.470165567,0.000000028,0.000000191,-0.000001018,0.000000000,0.000000000,0.000000000,0.000000000,-0.948411137,0.199999907,-0.000007638,0.000040741,0.000000000,0.000000000,0.314866276,0.000000012,0.000000955,-0.000005092,0.000000000
1760480704.410064,0.310415947,-0.000000096,0.000001928,-0.000010286,0.000000000,0.000000000,0.003094823,-0.000001470,-0.000101083,0.000038970,-1.252402663,0.200000003,-0.000009547,0.000050923,0.000000000,0.000000000,0.311771452,0.000001482,0.000102038,-0.000044062,409941382.000000000,1760480704.000000000,0.000000000,0.000000000,0.000000000,0.000000000,0.000000000,0.000000000,0.000000000,0.000000000,0.000000000,0.000000000,0.470074249,-0.000000010,0.000000193,-0.000001029,0.000000000,0.000000000,0.000000000,0.000000000,-0.941986716,0.199999907,-0.000007619,0.000040637,0.000000000,0.000000000,0.314866276,0.000000012,0.000000955,-0.000005092,0.000000000
1760480704.430128,0.310338283,0.000000024,0.000009937,-0.000010388,0.000000000,0.000000000,0.001827569,-0.000001207,0.000052135,0.000006973,-1.246009231,0.199999884,-0.000017537,0.000050923,0.000000000,0.000000000,0.313038707,0.000001219,-0.000051180,-0.000012065,430000123.000000000,1760480704.000000000,0.000000000,0.000000000,0.000000000,0.000000000,0.000000000,0.000000000,0.000000000,0.000000000,0.000000000,0.000000000,0.470035417,0.000000002,0.000000994,-0.000001039,0.000000000,0.000000000,0.000000000,0.000000000,-0.935670947,0.199999907,-0.000007600,0.000040535,0.000000000,0.000000000,0.314866276,0.000000012,0.000000955,-0.000005092,0.000000000
1760480704.449289,0.310242623,0.000000277,0.000009955,-0.000026464,0.000000000,0.000000000,0.000395299,0.000000072,0.000121667,0.000028817,-1.239873409,0.199999630,-0.000017537,0.000066902,0.000000000,0.000000000,0.314470977,-0.000000060,-0.000120712,-0.000033909,449182826.000000000,1760480704.000000000,0.000000000,0.000000000,0.000000000,0.000000000,0.000000000,0.000000000,0.000000000,0.000000000,0.000000000,0.000000000,0.469987587,0.000000028,0.000000996,-0.000002646,0.000000000,0.000000000,0.000000000,0.000000000,-0.929630786,0.199999908,-0.000007582,0.000040437,0.000000000,0.000000000,0.314866276,0.000000012,0.000000955,-0.000005092,0.000000000
1760480704.472053,0.310725192,0.000000024,0.000017966,-0.000026579,0.000000000,0.000000000,-0.002229988,0.000000372,0.000186585,0.000009126,-1.233288169,0.199999884,-0.000025526,0.000066902,0.000000000,0.000000000,0.317096263,-0.000000361,-0.000185630,-0.000014219,471629567.000000000,1760480704.000000000,0.000000000,0.000000000,0.000000000,0.000000000,0.000000000,0.000000000,0.000000000,0.000000000,0.000000000,0.000000000,0.470228872,0.000000002,0.000001797,-0.000002658,0.000000000,0.000000000,0.000000000,0.000000000,-0.922562977,0.199999908,-0.000007560,0.000040323,0.000000000,0.000000000,0.314866276,0.000000012,0.000000955,-0.000005092,0.000000000
1760480704.491843,0.310433974,0.000000024,0.000009996,0.000005277,0.000000000,0.000000000,-0.005797564,0.000001463,-0.000004476,-0.000047792,-1.226692080,0.199999884,-0.000017537,0.000034944,0.000000000,0.000000000,0.320663840,-0.000001451,0.000005431,0.000042700,491653549.000000000,1760480704.000000000,0.000000000,0.000000000,0.000000000,0.000000000,0.000000000,0.000000000,0.000000000,0.000000000,0.000000000,0.000000000,0.470083263,0.000000002,0.000001000,0.000000528,0.000000000,0.000000000,0.000000000,0.000000000,-0.916258106,0.199999908,-0.000007541,0.000040221,0.000000000,0.000000000,0.314866276,0.000000012,0.000000955,-0.000005092,0.000000000
1760480704.509284,0.309499334,0.000000025,-0.000005966,-0.000026770,0.000000000,0.000000000,-0.009190022,0.000000993,-0.000096776,-0.000036408,-1.220238447,0.199999884,-0.000001558,0.000066902,0.000000000,0.000000000,0.324056298,-0.000000981,0.000097731,0.000031316,509181326.000000000,1760480704.000000000,0.000000000,0.000000000,0.000000000,0.000000000,0.000000000,0.000000000,0.000000000,0.000000000,0.000000000,0.000000000,0.469615943,0.000000002,-0.000000597,-0.000002677,0.000000000,0.000000000,0.000000000,0.000000000,-0.910739113,0.199999908,-0.000007524,0.000040132,0.000000000,0.000000000,0.314866276,0.000000012,0.000000955,-0.000005092,0.000000000
1760480704.529873,0.309177702,0.000000144,0.000002043,-0.000026875,0.000000000,0.000000000,-0.012320011,0.000001425,-0.000067548,-0.000068098,-1.213439584,0.199999765,-0.000009547,0.000066902,0.000000000,0.000000000,0.327186286,-0.000001414,0.000068502,0.000063006,529753160.000000000,1760480704.000000000,0.000000000,0.000000000,0.000000000,0.000000000,0.000000000,0.000000000,0.000000000,0.000000000,0.000000000,0.000000000,0.469455126,0.000000014,0.000000204,-0.000002687,0.000000000,0.000000000,0.000000000,0.000000000,-0.904261882,0.199999909,-0.000007505,0.000040027,0.000000000,0.000000000,0.314866276,0.000000012,0.000000955,-0.000005092,0.000000000
1760480704.549797,0.308523205,0.000000144,0.000002062,-0.000010996,0.000000000,0.000000000,-0.015664249,0.000001726,-0.000017398,0.000043585,-1.206602454,0.199999765,-0.000009547,0.000050923,0.000000000,0.000000000,0.330530524,-0.000001715,0.000018353,-0.000048677,549388604.000000000,1760480704.000000000,0.000000000,0.000000000,0.000000000,0.000000000,0.000000000,0.000000000,0.000000000,0.000000000,0.000000000,0.000000000,0.469127878,0.000000014,0.000000206,-0.000001100,0.000000000,0.000000000,0.000000000,0.000000000,-0.898079249,0.199999909,-0.000007486,0.000039927,0.000000000,0.000000000,0.314866276,0.000000012,0.000000955,-0.000005092,0.000000000
1760480704.569830,0.308033054,0.000000145,0.000010070,-0.000027077,0.000000000,0.000000000,-0.018592535,0.000000861,0.000076748,-0.000051484,-1.199765205,0.199999765,-0.000017537,0.000066902,0.000000000,0.000000000,0.333458811,-0.000000850,-0.000075793,0.000046392,569547697.000000000,1760480704.000000000,0.000000000,0.000000000,0.000000000,0.000000000,0.000000000,0.000000000,0.000000000,0.000000000,0.000000000,0.000000000,0.468882802,0.000000014,0.000001007,-0.000002708,0.000000000,0.000000000,0.000000000,0.000000000,-0.891732152,0.199999909,-0.000007467,0.000039824,0.000000000,0.000000000,0.314866276,0.000000012,0.000000955,-0.000005092,0.000000000
1760480704.590155,0.307374132,0.000000279,0.000018079,-0.000011200,0.000000000,0.000000000,-0.022230117,0.000000654,0.000127820,0.000034663,-1.192791104,0.199999630,-0.000025526,0.000050923,0.000000000,0.000000000,0.337096393,-0.000000643,-0.000126866,-0.000039755,589605178.000000000,1760480704.000000000,0.000000000,0.000000000,0.000000000,0.000000000,0.000000000,0.000000000,0.000000000,0.000000000,0.000000000,0.000000000,0.468553342,0.000000028,0.000001808,-0.000001120,0.000000000,0.000000000,0.000000000,0.000000000,-0.885416972,0.199999909,-0.000007447,0.000039722,0.000000000,0.000000000,0.314866276,0.000000012,0.000000955,-0.000005092,0.000000000
1760480704.609381,0.306863193,0.000000145,0.000002119,-0.000011301,0.000000000,0.000000000,-0.026047408,0.000000711,0.000085978,0.000022356,-1.186085463,0.199999765,-0.000009547,0.000050923,0.000000000,0.000000000,0.340913683,-0.000000699,-0.000085023,-0.000027448,609277548.000000000,1760480704.000000000,0.000000000,0.000000000,0.000000000,0.000000000,0.000000000,0.000000000,0.000000000,0.000000000,0.000000000,0.000000000,0.468297872,0.000000015,0.000000212,-0.000001130,0.000000000,0.000000000,0.000000000,0.000000000,-0.879222270,0.199999910,-0.000007429,0.000039622,0.000000000,0.000000000,0.314866276,0.000000012,0.000000955,-0.000005092,0.000000000
1760480704.629278,0.305941952,0.000000145,0.000002138,-0.000011402,0.000000000,0.000000000,-0.030799149,0.000001444,-0.000040165,-0.000012718,-1.178897619,0.199999765,-0.000009547,0.000050923,0.000000000,0.000000000,0.345665425,-0.000001433,0.000041120,0.000007626,629180086.000000000,1760480704.000000000,0.000000000,0.000000000,0.000000000,0.000000000,0.000000000,0.000000000,0.000000000,0.000000000,0.000000000,0.000000000,0.467837252,0.000000015,0.000000214,-0.000001140,0.000000000,0.000000000,0.000000000,0.000000000,-0.872955667,0.199999910,-0.000007410,0.000039521,0.000000000,0.000000000,0.314866276,0.000000012,0.000000955,-0.000005092,0.000000000
1760480704.649283,0.305140280,0.000000145,0.000002157,-0.000011504,0.000000000,0.000000000,-0.033425479,0.000000974,-0.000084469,0.000003281,-1.171797514,0.199999765,-0.000009547,0.000050923,0.000000000,0.000000000,0.348291755,-0.000000962,0.000085424,-0.000008373,649183437.000000000,1760480704.000000000,0.000000000,0.000000000,0.000000000,0.000000000,0.000000000,0.000000000,0.000000000,0.000000000,0.000000000,0.000000000,0.467436416,0.000000015,0.000000216,-0.000001150,0.000000000,0.000000000,0.000000000,0.000000000,-0.866657234,0.199999910,-0.000007391,0.000039419,0.000000000,0.000000000,0.314866276,0.000000012,0.000000955,-0.000005092,0.000000000
1760480704.669352,0.304387968,0.000000146,0.000002176,-0.000027585,0.000000000,0.000000000,-0.034689634,0.000001162,-0.000082316,-0.000065637,-1.164730191,0.199999765,-0.000009547,0.000066902,0.000000000,0.000000000,0.349555910,-0.000001150,0.000083271,0.000060544,669239326.000000000,1760480704.000000000,0.000000000,0.000000000,0.000000000,0.000000000,0.000000000,0.000000000,0.000000000,0.000000000,0.000000000,0.000000000,0.467060260,0.000000015,0.000000218,-0.000002758,0.000000000,0.000000000,0.000000000,0.000000000,-0.860342223,0.199999910,-0.000007371,0.000039317,0.000000000,0.000000000,0.314866276,0.000000012,0.000000955,-0.000005092,0.000000000
1760480704.689508,0.303530386,0.000000146,0.000010185,0.000004270,0.000000000,0.000000000,-0.036885797,0.000001952,-0.000012168,-0.000006565,-1.157531500,0.199999765,-0.000017537,0.000034944,0.000000000,0.000000000,0.351752073,-0.000001940,0.000013123,0.000001472,689379067.000000000,1760480704.000000000,0.000000000,0.000000000,0.000000000,0.000000000,0.000000000,0.000000000,0.000000000,0.000000000,0.000000000,0.000000000,0.466631469,0.000000015,0.000001018,0.000000427,0.000000000,0.000000000,0.000000000,0.000000000,-0.854001114,0.199999910,-0.000007352,0.000039214,0.000000000,0.000000000,0.314866276,0.000000012,0.000000955,-0.000005092,0.000000000
1760480704.709339,0.302381161,0.000000146,0.000010204,-0.000011810,0.000000000,0.000000000,-0.040546535,0.000002478,0.000103207,0.000002050,-1.150130033,0.199999765,-0.000017537,0.000050923,0.000000000,0.000000000,0.355412811,-0.000002467,-0.000102252,-0.000007142,709236363.000000000,1760480704.000000000,0.000000000,0.000000000,0.000000000,0.000000000,0.000000000,0.000000000,0.000000000,0.000000000,0.000000000,0.000000000,0.466056856,0.000000015,0.000001020,-0.000001181,0.000000000,0.000000000,0.000000000,0.000000000,-0.847748872,0.199999911,-0.000007333,0.000039113,0.000000000,0.000000000,0.314866276,0.000000012,0.000000955,-0.000005092,0.000000000
1760480704.729228,0.301382117,0.000000146,0.000010223,-0.000011911,0.000000000,0.000000000,-0.045593171,0.000001670,0.000109053,0.000035893,-1.142871022,0.199999765,-0.000017537,0.000050923,0.000000000,0.000000000,0.360459447,-0.000001658,-0.000108098,-0.000040985,729116993.000000000,1760480704.000000000,0.000000000,0.000000000,0.000000000,0.000000000,0.000000000,0.000000000,0.000000000,0.000000000,0.000000000,0.000000000,0.465557334,0.000000015,0.000001022,-0.000001191,0.000000000,0.000000000,0.000000000,0.000000000,-0.841488905,0.199999911,-0.000007314,0.000039012,0.000000000,0.000000000,0.314866276,0.000000012,0.000000955,-0.000005092,0.000000000
1760480704.749141,0.300012084,0.000000147,0.000010242,-0.000012012,0.000000000,0.000000000,-0.050576418,0.000001237,-0.000015860,0.000044816,-1.135228515,0.199999765,-0.000017537,0.000050923,0.000000000,0.000000000,0.365442693,-0.000001226,0.000016814,-0.000049908,749038585.000000000,1760480704.000000000,0.000000000,0.000000000,0.000000000,0.000000000,0.000000000,0.000000000,0.000000000,0.000000000,0.000000000,0.000000000,0.464872318,0.000000015,0.000001024,-0.000001201,0.000000000,0.000000000,0.000000000,0.000000000,-0.835216431,0.199999911,-0.000007295,0.000038910,0.000000000,0.000000000,0.314866276,0.000000012,0.000000955,-0.000005092,0.000000000
1760480704.769395,0.298747901,0.000000028,0.000002271,-0.000012115,0.000000000,0.000000000,-0.054045944,0.000001689,-0.000088777,-0.000028409,-1.127591491,0.199999884,-0.000009547,0.000050923,0.000000000,0.000000000,0.368912220,-0.000001677,0.000089731,0.000023317,769278474.000000000,1760480704.000000000,0.000000000,0.000000000,0.000000000,0.000000000,0.000000000,0.000000000,0.000000000,0.000000000,0.000000000,0.000000000,0.464240226,0.000000003,0.000000227,-0.000001212,0.000000000,0.000000000,0.000000000,0.000000000,-0.828843590,0.199999911,-0.000007276,0.000038807,0.000000000,0.000000000,0.314866276,0.000000012,0.000000955,-0.000005092,0.000000000
1760480704.790141,0.297592375,0.000000028,-0.000013688,-0.000028200,0.000000000,0.000000000,-0.055460839,0.000000692,-0.000105391,-0.000061945,-1.119927049,0.199999884,0.000006432,0.000066902,0.000000000,0.000000000,0.370327115,-0.000000680,0.000106345,0.000056852,789950734.000000000,1760480704.000000000,0.000000000,0.000000000,0.000000000,0.000000000,0.000000000,0.000000000,0.000000000,0.000000000,0.000000000,0.000000000,0.463662463,0.000000003,-0.000001369,-0.000002820,0.000000000,0.000000000,0.000000000,0.000000000,-0.822334674,0.199999912,-0.000007256,0.000038702,0.000000000,0.000000000,0.314866276,0.000000012,0.000000955,-0.000005092,0.000000000
1760480704.809880,0.296387895,0.000000147,0.000002310,-0.000012320,0.000000000,0.000000000,-0.057420253,0.000000241,-0.000063548,-0.000004411,-1.112602234,0.199999765,-0.000009547,0.000050923,0.000000000,0.000000000,0.372286528,-0.000000229,0.000064503,-0.000000681,809388863.000000000,1760480704.000000000,0.000000000,0.000000000,0.000000000,0.000000000,0.000000000,0.000000000,0.000000000,0.000000000,0.000000000,0.000000000,0.463060223,0.000000015,0.000000231,-0.000001232,0.000000000,0.000000000,0.000000000,0.000000000,-0.816214339,0.199999912,-0.000007238,0.000038603,0.000000000,0.000000000,0.314866276,0.000000012,0.000000955,-0.000005092,0.000000000
1760480704.829883,0.295071145,0.000000148,0.000010318,-0.000012421,0.000000000,0.000000000,-0.060921132,-0.000000323,0.000051827,0.000040508,-1.104998112,0.199999765,-0.000017537,0.000050923,0.000000000,0.000000000,0.375787407,0.000000335,-0.000050872,-0.000045600,829357382.000000000,1760480704.000000000,0.000000000,0.000000000,0.000000000,0.000000000,0.000000000,0.000000000,0.000000000,0.000000000,0.000000000,0.000000000,0.462401848,0.000000015,0.000001032,-0.000001242,0.000000000,0.000000000,0.000000000,0.000000000,-0.809926966,0.199999912,-0.000007219,0.000038501,0.000000000,0.000000000,0.314866276,0.000000012,0.000000955,-0.000005092,0.000000000
1760480704.850146,0.293721461,0.000000148,0.000010338,-0.000044484,0.000000000,0.000000000,-0.066415398,-0.000000154,0.000089054,0.000079582,-1.097152829,0.199999765,-0.000017537,0.000082881,0.000000000,0.000000000,0.381281674,0.000000166,-0.000088100,-0.000084674,849988289.000000000,1760480704.000000000,0.000000000,0.000000000,0.000000000,0.000000000,0.000000000,0.000000000,0.000000000,0.000000000,0.000000000,0.000000000,0.461727006,0.000000015,0.000001034,-0.000004448,0.000000000,0.000000000,0.000000000,0.000000000,-0.803431368,0.199999912,-0.000007199,0.000038396,0.000000000,0.000000000,0.314866276,0.000000012,0.000000955,-0.000005092,0.000000000
1760480704.869908,0.291640012,0.000000148,-0.000005622,-0.000012627,0.000000000,0.000000000,-0.073313861,0.000000617,0.000004138,-0.000014564,-1.088863850,0.199999765,-0.000001558,0.000050923,0.000000000,0.000000000,0.388180137,-0.000000605,-0.000003184,0.000009472,869703382.000000000,1760480704.000000000,0.000000000,0.000000000,0.000000000,0.000000000,0.000000000,0.000000000,0.000000000,0.000000000,0.000000000,0.000000000,0.460686281,0.000000015,-0.000000562,-0.000001263,0.000000000,0.000000000,0.000000000,0.000000000,-0.797223838,0.199999913,-0.000007180,0.000038296,0.000000000,0.000000000,0.314866276,0.000000012,0.000000955,-0.000005092,0.000000000
1760480704.891005,0.290081190,0.000000029,0.000002388,-0.000012734,0.000000000,0.000000000,-0.076539813,0.000000654,-0.000048472,-0.000058868,-1.080651641,0.199999884,-0.000009547,0.000050923,0.000000000,0.000000000,0.391406089,-0.000000643,0.000049427,0.000053776,890837511.000000000,1760480704.000000000,0.000000000,0.000000000,0.000000000,0.000000000,0.000000000,0.000000000,0.000000000,0.000000000,0.000000000,0.000000000,0.459906870,0.000000003,0.000000239,-0.000001273,0.000000000,0.000000000,0.000000000,0.000000000,-0.790570451,0.199999913,-0.000007160,0.000038188,0.000000000,0.000000000,0.314866276,0.000000012,0.000000955,-0.000005092,0.000000000
1760480704.909964,0.288441687,0.000000283,0.000010395,-0.000044788,0.000000000,0.000000000,-0.076650589,0.000000184,-0.000070009,0.000008819,-1.073107719,0.199999630,-0.000017537,0.000082881,0.000000000,0.000000000,0.391516864,-0.000000173,0.000070964,-0.000013911,909584085.000000000,1760480704.000000000,0.000000000,0.000000000,0.000000000,0.000000000,0.000000000,0.000000000,0.000000000,0.000000000,0.000000000,0.000000000,0.459087119,0.000000028,0.000001039,-0.000004479,0.000000000,0.000000000,0.000000000,0.000000000,-0.784666032,0.199999913,-0.000007142,0.000038093,0.000000000,0.000000000,0.314866276,0.000000012,0.000000955,-0.000005092,0.000000000
1760480704.930257,0.287203178,0.000000030,0.000010415,-0.000012935,0.000000000,0.000000000,-0.076081364,-0.000000981,-0.000015244,-0.000014872,-1.065394044,0.199999884,-0.000017537,0.000050923,0.000000000,0.000000000,0.390947640,0.000000993,0.000016199,0.000009779,930148863.000000000,1760480704.000000000,0.000000000,0.000000000,0.000000000,0.000000000,0.000000000,0.000000000,0.000000000,0.000000000,0.000000000,0.000000000,0.458467865,0.000000003,0.000001041,-0.000001293,0.000000000,0.000000000,0.000000000,0.000000000,-0.778190866,0.199999913,-0.000007122,0.000037988,0.000000000,0.000000000,0.314866276,0.000000012,0.000000955,-0.000005092,0.000000000
1760480704.949414,0.285452377,0.000000149,0.000010433,-0.000013032,0.000000000,0.000000000,-0.077618419,-0.000000925,0.000101053,0.000012511,-1.057609081,0.199999765,-0.000017537,0.000050923,0.000000000,0.000000000,0.392484695,0.000000937,-0.000100099,-0.000017603,949312400.000000000,1760480704.000000000,0.000000000,0.000000000,0.000000000,0.000000000,0.000000000,0.000000000,0.000000000,0.000000000,0.000000000,0.000000000,0.457592464,0.000000015,0.000001043,-0.000001303,0.000000000,0.000000000,0.000000000,0.000000000,-0.772156704,0.199999914,-0.000007104,0.000037891,0.000000000,0.000000000,0.314866276,0.000000012,0.000000955,-0.000005092,0.000000000
1760480704.969387,0.283655548,0.000000149,0.000002462,-0.000029113,0.000000000,0.000000000,-0.081125407,-0.000000474,0.000012753,0.000041124,-1.049522758,0.199999765,-0.000009547,0.000066902,0.000000000,0.000000000,0.395991683,0.000000485,-0.000011798,-0.000046216,969287622.000000000,1760480704.000000000,0.000000000,0.000000000,0.000000000,0.000000000,0.000000000,0.000000000,0.000000000,0.000000000,0.000000000,0.000000000,0.456694050,0.000000015,0.000000246,-0.000002911,0.000000000,0.000000000,0.000000000,0.000000000,-0.765867210,0.199999914,-0.000007085,0.000037789,0.000000000,0.000000000,0.314866276,0.000000012,0.000000955,-0.000005092,0.000000000
1760480704.989297,0.281479352,0.000000284,0.000010471,-0.000029214,0.000000000,0.000000000,-0.084955423,-0.000000286,-0.000058318,-0.000023179,-1.041080356,0.199999630,-0.000017537,0.000066902,0.000000000,0.000000000,0.399821699,0.000000297,0.000059273,0.000018086,989188548.000000000,1760480704.000000000,0.000000000,0.000000000,0.000000000,0.000000000,0.000000000,0.000000000,0.000000000,0.000000000,0.000000000,0.000000000,0.455605952,0.000000028,0.000001047,-0.000002921,0.000000000,0.000000000,0.000000000,0.000000000,-0.759601003,0.199999914,-0.000007066,0.000037688,0.000000000,0.000000000,0.314866276,0.000000012,0.000000955,-0.000005092,0.000000000
1760480705.009737,0.280076875,0.000000150,0.000002501,-0.000029318,0.000000000,0.000000000,-0.086770444,-0.000000342,-0.000070009,-0.000074251,-1.033240676,0.199999765,-0.000009547,0.000066902,0.000000000,0.000000000,0.401636720,0.000000354,0.000070964,0.000069159,9633178.000000000,1760480705.000000000,0.000000000,0.000000000,0.000000000,0.000000000,0.000000000,0.000000000,0.000000000,0.000000000,0.000000000,0.000000000,0.454904713,0.000000015,0.000000250,-0.000002932,0.000000000,0.000000000,0.000000000,0.000000000,-0.753163801,0.199999914,-0.000007046,0.000037583,0.000000000,0.000000000,0.314866276,0.000000012,0.000000955,-0.000005092,0.000000000
1760480705.029539,0.277985211,0.000000150,0.000002520,-0.000029419,0.000000000,0.000000000,-0.090130567,-0.000000812,-0.000039242,0.000031278,-1.024929762,0.199999765,-0.000009547,0.000066902,0.000000000,0.000000000,0.404996842,0.000000824,0.000040197,-0.000036370,29385567.000000000,1760480705.000000000,0.000000000,0.000000000,0.000000000,0.000000000,0.000000000,0.000000000,0.000000000,0.000000000,0.000000000,0.000000000,0.453858881,0.000000015,0.000000252,-0.000002942,0.000000000,0.000000000,0.000000000,0.000000000,-0.746944551,0.199999914,-0.000007028,0.000037483,0.000000000,0.000000000,0.314866276,0.000000012,0.000000955,-0.000005092,0.000000000
1760480705.049695,0.275565935,0.000000150,0.000010528,-0.000013542,0.000000000,0.000000000,-0.094195812,-0.000000399,0.000055519,-0.000038562,-1.016208053,0.199999765,-0.000017537,0.000050923,0.000000000,0.000000000,0.409062088,0.000000410,-0.000054564,0.000033470,49402067.000000000,1760480705.000000000,0.000000000,0.000000000,0.000000000,0.000000000,0.000000000,0.000000000,0.000000000,0.000000000,0.000000000,0.000000000,0.452649243,0.000000015,0.000001053,-0.000001354,0.000000000,0.000000000,0.000000000,0.000000000,-0.740642118,0.199999915,-0.000007008,0.000037381,0.000000000,0.000000000,0.314866276,0.000000012,0.000000955,-0.000005092,0.000000000
1760480705.070159,0.273896021,0.000000150,0.000018538,-0.000013647,0.000000000,0.000000000,-0.097308605,-0.000000681,0.000049058,0.000065429,-1.008045077,0.199999765,-0.000025526,0.000050923,0.000000000,0.000000000,0.412174881,0.000000692,-0.000048103,-0.000070521,70022807.000000000,1760480705.000000000,0.000000000,0.000000000,0.000000000,0.000000000,0.000000000,0.000000000,0.000000000,0.000000000,0.000000000,0.000000000,0.451814286,0.000000015,0.000001854,-0.000001365,0.000000000,0.000000000,0.000000000,0.000000000,-0.734149056,0.199999915,-0.000006989,0.000037276,0.000000000,0.000000000,0.314866276,0.000000012,0.000000955,-0.000005092,0.000000000
1760480705.089700,0.271285007,0.000000151,0.000002577,-0.000013746,0.000000000,0.000000000,-0.102792888,0.000000504,-0.000032781,0.000034663,-0.999295890,0.199999765,-0.000009547,0.000050923,0.000000000,0.000000000,0.417659163,-0.000000492,0.000033736,-0.000039755,89518141.000000000,1760480705.000000000,0.000000000,0.000000000,0.000000000,0.000000000,0.000000000,0.000000000,0.000000000,0.000000000,0.000000000,0.000000000,0.450508779,0.000000015,0.000000258,-0.000001375,0.000000000,0.000000000,0.000000000,0.000000000,-0.728010884,0.199999915,-0.000006970,0.000037177,0.000000000,0.000000000,0.314866276,0.000000012,0.000000955,-0.000005092,0.000000000
1760480705.109494,0.269057511,0.000000285,0.000010586,-0.000013847,0.000000000,0.000000000,-0.104704796,0.000000918,-0.000042319,-0.000014256,-0.990826130,0.199999630,-0.000017537,0.000050923,0.000000000,0.000000000,0.419571072,-0.000000906,0.000043274,0.000009164,109343178.000000000,1760480705.000000000,0.000000000,0.000000000,0.000000000,0.000000000,0.000000000,0.000000000,0.000000000,0.000000000,0.000000000,0.000000000,0.449395031,0.000000028,0.000001059,-0.000001385,0.000000000,0.000000000,0.000000000,0.000000000,-0.721768619,0.199999915,-0.000006951,0.000037076,0.000000000,0.000000000,0.314866276,0.000000012,0.000000955,-0.000005092,0.000000000
1760480705.129478,0.267242224,0.000000285,0.000010605,-0.000029928,0.000000000,0.000000000,-0.105624228,0.000000654,-0.000028167,-0.000061022,-0.982712567,0.199999630,-0.000017537,0.000066902,0.000000000,0.000000000,0.420490503,-0.000000643,0.000029121,0.000055929,129346437.000000000,1760480705.000000000,0.000000000,0.000000000,0.000000000,0.000000000,0.000000000,0.000000000,0.000000000,0.000000000,0.000000000,0.000000000,0.448487387,0.000000029,0.000001060,-0.000002993,0.000000000,0.000000000,0.000000000,0.000000000,-0.715470343,0.199999916,-0.000006932,0.000036974,0.000000000,0.000000000,0.314866276,0.000000012,0.000000955,-0.000005092,0.000000000
1760480705.149498,0.264463728,0.000000151,0.000010624,-0.000014051,0.000000000,0.000000000,-0.109927087,0.000000673,0.000031521,0.000035586,-0.973628938,0.199999765,-0.000017537,0.000050923,0.000000000,0.000000000,0.424793363,-0.000000662,-0.000030566,-0.000040678,149375826.000000000,1760480705.000000000,0.000000000,0.000000000,0.000000000,0.000000000,0.000000000,0.000000000,0.000000000,0.000000000,0.000000000,0.000000000,0.447098140,0.000000015,0.000001062,-0.000001405,0.000000000,0.000000000,0.000000000,0.000000000,-0.709165210,0.199999916,-0.000006913,0.000036872,0.000000000,0.000000000,0.314866276,0.000000012,0.000000955,-0.000005092,0.000000000
1760480705.169315,0.262097207,0.000000152,0.000002653,-0.000014152,0.000000000,0.000000000,-0.113207548,0.000000880,0.000075825,0.000095273,-0.965016782,0.199999765,-0.000009547,0.000050923,0.000000000,0.000000000,0.428073823,-0.000000868,-0.000074870,-0.000100365,169206419.000000000,1760480705.000000000,0.000000000,0.000000000,0.000000000,0.000000000,0.000000000,0.000000000,0.000000000,0.000000000,0.000000000,0.000000000,0.445914879,0.000000015,0.000000265,-0.000001415,0.000000000,0.000000000,0.000000000,0.000000000,-0.702919575,0.199999916,-0.000006894,0.000036771,0.000000000,0.000000000,0.314866276,0.000000012,0.000000955,-0.000005092,0.000000000
1760480705.189267,0.259267834,0.000000286,0.000002672,-0.000014254,0.000000000,0.000000000,-0.119062751,0.000000579,-0.000000784,0.000045123,-0.955900550,0.199999630,-0.000009547,0.000050923,0.000000000,0.000000000,0.433929026,-0.000000568,0.000001739,-0.000050216,189172919.000000000,1760480705.000000000,0.000000000,0.000000000,0.000000000,0.000000000,0.000000000,0.000000000,0.000000000,0.000000000,0.000000000,0.000000000,0.444500193,0.000000029,0.000000267,-0.000001425,0.000000000,0.000000000,0.000000000,0.000000000,-0.696632716,0.199999916,-0.000006875,0.000036669,0.000000000,0.000000000,0.314866276,0.000000012,0.000000955,-0.000005092,0.000000000
1760480705.210077,0.256951437,0.000000152,-0.000005298,-0.000030337,0.000000000,0.000000000,-0.120840399,0.000000748,-0.000037397,-0.000043485,-0.947151482,0.199999765,-0.000001558,0.000066902,0.000000000,0.000000000,0.435706675,-0.000000737,0.000038351,0.000038392,209607122.000000000,1760480705.000000000,0.000000000,0.000000000,0.000000000,0.000000000,0.000000000,0.000000000,0.000000000,0.000000000,0.000000000,0.000000000,0.443341994,0.000000015,-0.000000530,-0.000003034,0.000000000,0.000000000,0.000000000,0.000000000,-0.690200045,0.199999917,-0.000006856,0.000036565,0.000000000,0.000000000,0.314866276,0.000000012,0.000000955,-0.000005092,0.000000000
1760480705.229796,0.254287840,0.000000152,0.000010700,-0.000014459,0.000000000,0.000000000,-0.123542278,0.000000391,-0.000015552,0.000013126,-0.938215911,0.199999765,-0.000017537,0.000050923,0.000000000,0.000000000,0.438408554,-0.000000380,0.000016507,-0.000018218,229523715.000000000,1760480705.000000000,0.000000000,0.000000000,0.000000000,0.000000000,0.000000000,0.000000000,0.000000000,0.000000000,0.000000000,0.000000000,0.442010195,0.000000015,0.000001070,-0.000001446,0.000000000,0.000000000,0.000000000,0.000000000,-0.683928072,0.199999917,-0.000006836,0.000036464,0.000000000,0.000000000,0.314866276,0.000000012,0.000000955,-0.000005092,0.000000000
1760480705.249700,0.251704083,0.000000287,0.000002730,-0.000014560,0.000000000,0.000000000,-0.124923288,0.000001313,0.000015830,-0.000042562,-0.929368258,0.199999630,-0.000009547,0.000050923,0.000000000,0.000000000,0.439789563,-0.000001301,-0.000014875,0.000037469,249416326.000000000,1760480705.000000000,0.000000000,0.000000000,0.000000000,0.000000000,0.000000000,0.000000000,0.000000000,0.000000000,0.000000000,0.000000000,0.440718317,0.000000029,0.000000273,-0.000001456,0.000000000,0.000000000,0.000000000,0.000000000,-0.677664174,0.199999917,-0.000006818,0.000036362,0.000000000,0.000000000,0.314866276,0.000000012,0.000000955,-0.000005092,0.000000000
